{
"type": "FeatureCollection",
"crs": { "type": "name", "properties": { "name": "urn:ogc:def:crs:OGC:1.3:CRS84" } },
                                                                                
"features": [
{ "type": "Feature", "properties": { "BBL": 4162320045.000000, "j_2007uc": "71", "j_2016uc": "71", "j_cd": "414", "j_lon": "-73.8415", "j_lat": "40.576", "pluto_addr": "122-20 OCEAN PROMENADE", "pluto_resu": "72", "_hpdcompla": "1" }, "geometry": { "type": "Point", "coordinates": [ -73.841459550976339, 40.575953532871154 ] } },
{ "type": "Feature", "properties": { "BBL": 4034320022.000000, "j_2007uc": "6", "j_2016uc": "6", "j_cd": "405", "j_lon": null, "j_lat": null, "pluto_addr": "17-24 HIMROD STREET", "pluto_resu": "6", "_hpdcompla": "1" }, "geometry": { "type": "Point", "coordinates": [ -73.913833421386357, 40.705755317985947 ] } },
{ "type": "Feature", "properties": { "BBL": 4034330008.000000, "j_2007uc": "6", "j_2016uc": "6", "j_cd": "405", "j_lon": "-73.9135", "j_lat": "40.7049", "pluto_addr": "1720 HARMAN STREET", "pluto_resu": "6", "_hpdcompla": "1" }, "geometry": { "type": "Point", "coordinates": [ -73.913481668187472, 40.704937733558523 ] } },
{ "type": "Feature", "properties": { "BBL": 4034330066.000000, "j_2007uc": "5", "j_2016uc": "1", "j_cd": "405", "j_lon": "-73.9133", "j_lat": "40.7047", "pluto_addr": "1715 GREENE AVENUE", "pluto_resu": "6", "_hpdcompla": "2" }, "geometry": { "type": "Point", "coordinates": [ -73.913298998648003, 40.704654416159983 ] } },
{ "type": "Feature", "properties": { "BBL": 4034290054.000000, "j_2007uc": null, "j_2016uc": "6", "j_cd": "405", "j_lon": null, "j_lat": null, "pluto_addr": "17-07 HIMROD STREET", "pluto_resu": "6", "_hpdcompla": "1" }, "geometry": { "type": "Point", "coordinates": [ -73.914723158017921, 40.705584730266573 ] } },
{ "type": "Feature", "properties": { "BBL": 4034370050.000000, "j_2007uc": "6", "j_2016uc": null, "j_cd": "405", "j_lon": null, "j_lat": null, "pluto_addr": "17-25 MENAHAN STREET", "pluto_resu": "6", "_hpdcompla": "1" }, "geometry": { "type": "Point", "coordinates": [ -73.911374232530278, 40.7042114667424 ] } },
{ "type": "Feature", "properties": { "BBL": 4034360007.000000, "j_2007uc": "6", "j_2016uc": "6", "j_cd": "405", "j_lon": "-73.9128", "j_lat": "40.7044", "pluto_addr": "1718 GREENE AVENUE", "pluto_resu": "6", "_hpdcompla": "1" }, "geometry": { "type": "Point", "coordinates": [ -73.912795749595062, 40.704444891887931 ] } },
{ "type": "Feature", "properties": { "BBL": 4034520044.000000, "j_2007uc": "6", "j_2016uc": "6", "j_cd": "405", "j_lon": "-73.9093", "j_lat": "40.7028", "pluto_addr": "1715 GATES AVENUE", "pluto_resu": "6", "_hpdcompla": "3" }, "geometry": { "type": "Point", "coordinates": [ -73.909276639937502, 40.702771024973622 ] } },
{ "type": "Feature", "properties": { "BBL": 4035450001.000000, "j_2007uc": "42", "j_2016uc": "41", "j_cd": "405", "j_lon": "-73.9088", "j_lat": "40.6986", "pluto_addr": "1605 PUTNAM AVENUE", "pluto_resu": "45", "_hpdcompla": "1" }, "geometry": { "type": "Point", "coordinates": [ -73.908813410440871, 40.698571680705342 ] } },
{ "type": "Feature", "properties": { "BBL": 4035650039.000000, "j_2007uc": "3", "j_2016uc": "6", "j_cd": "405", "j_lon": "-73.9007", "j_lat": "40.698", "pluto_addr": "1731 NORMAN STREET", "pluto_resu": "6", "_hpdcompla": "1" }, "geometry": { "type": "Point", "coordinates": [ -73.900703802856825, 40.698047378091687 ] } },
{ "type": "Feature", "properties": { "BBL": 4035520009.000000, "j_2007uc": "6", "j_2016uc": null, "j_cd": "405", "j_lon": null, "j_lat": null, "pluto_addr": "10-03 WYCKOFF AVENUE", "pluto_resu": "6", "_hpdcompla": "1" }, "geometry": { "type": "Point", "coordinates": [ -73.904329401834886, 40.695998141890776 ] } },
{ "type": "Feature", "properties": { "BBL": 4035450027.000000, "j_2007uc": "6", "j_2016uc": "6", "j_cd": "405", "j_lon": "-73.9085", "j_lat": "40.6993", "pluto_addr": "1634 MADISON STREET", "pluto_resu": "6", "_hpdcompla": "3" }, "geometry": { "type": "Point", "coordinates": [ -73.908499791978741, 40.699334989024564 ] } },
{ "type": "Feature", "properties": { "BBL": 4034490041.000000, "j_2007uc": null, "j_2016uc": "6", "j_cd": "405", "j_lon": "-73.9087", "j_lat": "40.701", "pluto_addr": "1675 WOODBINE STREET", "pluto_resu": "6", "_hpdcompla": "2" }, "geometry": { "type": "Point", "coordinates": [ -73.908668673593482, 40.701039779696529 ] } },
{ "type": "Feature", "properties": { "BBL": 4034570020.000000, "j_2007uc": "5", "j_2016uc": "5", "j_cd": "405", "j_lon": "-73.9072", "j_lat": "40.7018", "pluto_addr": "1720 WOODBINE STREET", "pluto_resu": "6", "_hpdcompla": "1" }, "geometry": { "type": "Point", "coordinates": [ -73.907204370529286, 40.701769725219158 ] } },
{ "type": "Feature", "properties": { "BBL": 4034550042.000000, "j_2007uc": "6", "j_2016uc": "6", "j_cd": "405", "j_lon": "-73.9075", "j_lat": "40.7033", "pluto_addr": "1817 PALMETTO STREET", "pluto_resu": "6", "_hpdcompla": "1" }, "geometry": { "type": "Point", "coordinates": [ -73.907516939662202, 40.703329332045563 ] } },
{ "type": "Feature", "properties": { "BBL": 4034570057.000000, "j_2007uc": "6", "j_2016uc": "3", "j_cd": "405", "j_lon": "-73.9072", "j_lat": "40.7013", "pluto_addr": "1711 MADISON STREET", "pluto_resu": "6", "_hpdcompla": "1" }, "geometry": { "type": "Point", "coordinates": [ -73.907190020653189, 40.701324948704901 ] } },
{ "type": "Feature", "properties": { "BBL": 4034690017.000000, "j_2007uc": "6", "j_2016uc": null, "j_cd": "405", "j_lon": "-73.9061", "j_lat": "40.7041", "pluto_addr": "1870 PALMETTO STREET", "pluto_resu": "6", "_hpdcompla": "1" }, "geometry": { "type": "Point", "coordinates": [ -73.906054248198956, 40.70405931847516 ] } },
{ "type": "Feature", "properties": { "BBL": 4034550018.000000, "j_2007uc": "6", "j_2016uc": "6", "j_cd": "405", "j_lon": "-73.9076", "j_lat": "40.7037", "pluto_addr": "1824 GATES AVENUE", "pluto_resu": "6", "_hpdcompla": "1" }, "geometry": { "type": "Point", "coordinates": [ -73.907602364304026, 40.703706461004018 ] } },
{ "type": "Feature", "properties": { "BBL": 4034550043.000000, "j_2007uc": "6", "j_2016uc": null, "j_cd": "405", "j_lon": "-73.9076", "j_lat": "40.7033", "pluto_addr": "1815 PALMETTO STREET", "pluto_resu": "6", "_hpdcompla": "2" }, "geometry": { "type": "Point", "coordinates": [ -73.907571734214756, 40.703276166502995 ] } },
{ "type": "Feature", "properties": { "BBL": 4034730044.000000, "j_2007uc": "6", "j_2016uc": "6", "j_cd": "405", "j_lon": "-73.9019", "j_lat": "40.7024", "pluto_addr": "874 WOODWARD AVENUE", "pluto_resu": "6", "_hpdcompla": "6" }, "geometry": { "type": "Point", "coordinates": [ -73.90194229542422, 40.702411619778545 ] } },
{ "type": "Feature", "properties": { "BBL": 4036310001.000000, "j_2007uc": "80", "j_2016uc": "80", "j_cd": "405", "j_lon": "-73.8944", "j_lat": "40.7039", "pluto_addr": "62-02 CATALPA AVENUE", "pluto_resu": "81", "_hpdcompla": "1" }, "geometry": { "type": "Point", "coordinates": [ -73.8943903783221, 40.703908022700176 ] } },
{ "type": "Feature", "properties": { "BBL": 4036980021.000000, "j_2007uc": "6", "j_2016uc": "6", "j_cd": "405", "j_lon": "-73.8885", "j_lat": "40.7007", "pluto_addr": "72-19 65 PLACE", "pluto_resu": "6", "_hpdcompla": "1" }, "geometry": { "type": "Point", "coordinates": [ -73.888488786807116, 40.700673519067806 ] } },
{ "type": "Feature", "properties": { "BBL": 4090470001.000000, "j_2007uc": "6", "j_2016uc": "6", "j_cd": "409", "j_lon": "-73.8629", "j_lat": "40.6811", "pluto_addr": "97-05 75 STREET", "pluto_resu": "6", "_hpdcompla": "3" }, "geometry": { "type": "Point", "coordinates": [ -73.862887771874099, 40.68113435629482 ] } },
{ "type": "Feature", "properties": { "BBL": 4089290106.000000, "j_2007uc": "3", "j_2016uc": "1", "j_cd": "409", "j_lon": "-73.8516", "j_lat": "40.6915", "pluto_addr": "91-48 88 ROAD", "pluto_resu": "66", "_hpdcompla": "2" }, "geometry": { "type": "Point", "coordinates": [ -73.851595925882364, 40.691493806519489 ] } },
{ "type": "Feature", "properties": { "BBL": 4088870017.000000, "j_2007uc": "29", "j_2016uc": "29", "j_cd": "409", "j_lon": "-73.8498", "j_lat": "40.6964", "pluto_addr": "94-46 85 ROAD", "pluto_resu": "32", "_hpdcompla": "2" }, "geometry": { "type": "Point", "coordinates": [ -73.849797719280915, 40.696353323937032 ] } },
{ "type": "Feature", "properties": { "BBL": 4161770055.000000, "j_2007uc": "263", "j_2016uc": "264", "j_cd": "414", "j_lon": "-73.8263", "j_lat": "40.582", "pluto_addr": "106-10 SHORE FRONT PARKWAY", "pluto_resu": "265", "_hpdcompla": "6" }, "geometry": { "type": "Point", "coordinates": [ -73.826286713285498, 40.581992383938513 ] } },
{ "type": "Feature", "properties": { "BBL": 4161660038.000000, "j_2007uc": null, "j_2016uc": "18", "j_cd": "414", "j_lon": "-73.8345", "j_lat": "40.5808", "pluto_addr": "112-22 ROCKAWAY BEACH BLVD", "pluto_resu": "5", "_hpdcompla": "1" }, "geometry": { "type": "Point", "coordinates": [ -73.834512325077029, 40.580826075281799 ] } },
{ "type": "Feature", "properties": { "BBL": 4161770001.000000, "j_2007uc": "263", "j_2016uc": "264", "j_cd": "414", "j_lon": "-73.8284", "j_lat": "40.5809", "pluto_addr": "107-10 SHORE FRONT PARKWAY", "pluto_resu": "265", "_hpdcompla": "2" }, "geometry": { "type": "Point", "coordinates": [ -73.828384089602082, 40.581203760438399 ] } },
{ "type": "Feature", "properties": { "BBL": 4162260074.000000, "j_2007uc": "61", "j_2016uc": "61", "j_cd": "414", "j_lon": "-73.8375", "j_lat": "40.579", "pluto_addr": "180 BEACH 117 STREET", "pluto_resu": "61", "_hpdcompla": "6" }, "geometry": { "type": "Point", "coordinates": [ -73.837499443397135, 40.578982047359766 ] } },
{ "type": "Feature", "properties": { "BBL": 4161770035.000000, "j_2007uc": "239", "j_2016uc": "240", "j_cd": "414", "j_lon": "-73.8275", "j_lat": "40.5816", "pluto_addr": "106-20 SHORE FRONT PARKWAY", "pluto_resu": "240", "_hpdcompla": "1" }, "geometry": { "type": "Point", "coordinates": [ -73.827468511694065, 40.581614913458566 ] } },
{ "type": "Feature", "properties": { "BBL": 4161570089.000000, "j_2007uc": null, "j_2016uc": "32", "j_cd": "414", "j_lon": "-73.8223", "j_lat": "40.5839", "pluto_addr": "2-23 BEACH 101 STREET", "pluto_resu": "32", "_hpdcompla": "5" }, "geometry": { "type": "Point", "coordinates": [ -73.82225839207976, 40.583928606498993 ] } },
{ "type": "Feature", "properties": { "BBL": 4161230086.000000, "j_2007uc": null, "j_2016uc": "19", "j_cd": "414", "j_lon": "-73.8133", "j_lat": "40.5875", "pluto_addr": "88-02 ROCKAWAY BEACH BLVD", "pluto_resu": "19", "_hpdcompla": "8" }, "geometry": { "type": "Point", "coordinates": [ -73.813280335271628, 40.587543746561799 ] } },
{ "type": "Feature", "properties": { "BBL": 4157440007.000000, "j_2007uc": "108", "j_2016uc": "108", "j_cd": "414", "j_lon": "-73.7656", "j_lat": "40.5992", "pluto_addr": "29 BEACH 32 STREET", "pluto_resu": "107", "_hpdcompla": "1" }, "geometry": { "type": "Point", "coordinates": [ -73.765584492226353, 40.599370848961954 ] } },
{ "type": "Feature", "properties": { "BBL": 4157610014.000000, "j_2007uc": "1", "j_2016uc": null, "j_cd": "414", "j_lon": "-73.7553", "j_lat": "40.6006", "pluto_addr": "536 BEACH 22 STREET", "pluto_resu": "46", "_hpdcompla": "1" }, "geometry": { "type": "Point", "coordinates": [ -73.755256413762652, 40.600609769188736 ] } },
{ "type": "Feature", "properties": { "BBL": 4157670007.000000, "j_2007uc": "81", "j_2016uc": "79", "j_cd": "414", "j_lon": "-73.755", "j_lat": "40.5986", "pluto_addr": "20-30 ELK DRIVE", "pluto_resu": "81", "_hpdcompla": "11" }, "geometry": { "type": "Point", "coordinates": [ -73.75501249343813, 40.598638061970092 ] } },
{ "type": "Feature", "properties": { "BBL": 4157710071.000000, "j_2007uc": "62", "j_2016uc": "60", "j_cd": "414", "j_lon": "-73.7575", "j_lat": "40.599", "pluto_addr": "22-04 COLLIER AVENUE", "pluto_resu": "62", "_hpdcompla": "1" }, "geometry": { "type": "Point", "coordinates": [ -73.757476048675059, 40.59903597742241 ] } },
{ "type": "Feature", "properties": { "BBL": 4157800020.000000, "j_2007uc": "610", "j_2016uc": "569", "j_cd": "414", "j_lon": "-73.7563", "j_lat": "40.5965", "pluto_addr": "20-20 SEAGIRT BOULEVARD", "pluto_resu": "569", "_hpdcompla": "2" }, "geometry": { "type": "Point", "coordinates": [ -73.756296069717422, 40.596506218317671 ] } },
{ "type": "Feature", "properties": { "BBL": 4157620070.000000, "j_2007uc": "108", "j_2016uc": "108", "j_cd": "414", "j_lon": "-73.7561", "j_lat": "40.6007", "pluto_addr": "22-11 NEW HAVEN AVENUE", "pluto_resu": "108", "_hpdcompla": "5" }, "geometry": { "type": "Point", "coordinates": [ -73.756054885114153, 40.600750600044208 ] } },
{ "type": "Feature", "properties": { "BBL": 4156100001.000000, "j_2007uc": null, "j_2016uc": "913", "j_cd": "414", "j_lon": null, "j_lat": null, "pluto_addr": "7-11 SEAGIRT AVENUE", "pluto_resu": "917", "_hpdcompla": "7" }, "geometry": { "type": "Point", "coordinates": [ -73.741923653017679, 40.595362185020456 ] } },
{ "type": "Feature", "properties": { "BBL": 4156270001.000000, "j_2007uc": "2", "j_2016uc": "1", "j_cd": "414", "j_lon": "-73.7495", "j_lat": "40.5958", "pluto_addr": "14-30 SEAGIRT BOULEVARD", "pluto_resu": "114", "_hpdcompla": "1" }, "geometry": { "type": "Point", "coordinates": [ -73.749491676970635, 40.595795560149888 ] } },
{ "type": "Feature", "properties": { "BBL": 4093020028.000000, "j_2007uc": "55", "j_2016uc": "50", "j_cd": "409", "j_lon": "-73.8352", "j_lat": "40.6963", "pluto_addr": "87-60 113 STREET", "pluto_resu": "58", "_hpdcompla": "3" }, "geometry": { "type": "Point", "coordinates": [ -73.835186811151289, 40.696263092174689 ] } },
{ "type": "Feature", "properties": { "BBL": 4092980033.000000, "j_2007uc": "6", "j_2016uc": null, "j_cd": "409", "j_lon": "-73.8383", "j_lat": "40.6933", "pluto_addr": "108-01 91 AVENUE", "pluto_resu": "6", "_hpdcompla": "1" }, "geometry": { "type": "Point", "coordinates": [ -73.838324032826321, 40.693262965819507 ] } },
{ "type": "Feature", "properties": { "BBL": 4093200118.000000, "j_2007uc": null, "j_2016uc": null, "j_cd": "409", "j_lon": "-73.8325", "j_lat": "40.6931", "pluto_addr": "113-15 ATLANTIC AVENUE", "pluto_resu": "8", "_hpdcompla": "2" }, "geometry": { "type": "Point", "coordinates": [ -73.832533116437048, 40.69310377351681 ] } },
{ "type": "Feature", "properties": { "BBL": 4033210037.000000, "j_2007uc": "80", "j_2016uc": "81", "j_cd": "409", "j_lon": "-73.8348", "j_lat": "40.7057", "pluto_addr": "83-46 118 STREET", "pluto_resu": "84", "_hpdcompla": "1" }, "geometry": { "type": "Point", "coordinates": [ -73.83478898583482, 40.705727538483195 ] } },
{ "type": "Feature", "properties": { "BBL": 4033210061.000000, "j_2007uc": "179", "j_2016uc": "180", "j_cd": "409", "j_lon": "-73.8355", "j_lat": "40.7056", "pluto_addr": "83-31 116 STREET", "pluto_resu": "180", "_hpdcompla": "2" }, "geometry": { "type": "Point", "coordinates": [ -73.835458691950393, 40.705604684725365 ] } },
{ "type": "Feature", "properties": { "BBL": 4092610040.000000, "j_2007uc": "6", "j_2016uc": "6", "j_cd": "409", "j_lon": "-73.8323", "j_lat": "40.7016", "pluto_addr": "85-35 118 STREET", "pluto_resu": "6", "_hpdcompla": "1" }, "geometry": { "type": "Point", "coordinates": [ -73.832306760008819, 40.701619458391427 ] } },
{ "type": "Feature", "properties": { "BBL": 4092230034.000000, "j_2007uc": "42", "j_2016uc": "44", "j_cd": "409", "j_lon": "-73.8346", "j_lat": "40.7006", "pluto_addr": "85-55 115 STREET", "pluto_resu": "45", "_hpdcompla": "2" }, "geometry": { "type": "Point", "coordinates": [ -73.834647170927468, 40.700564163549465 ] } },
{ "type": "Feature", "properties": { "BBL": 4033210111.000000, "j_2007uc": "44", "j_2016uc": "44", "j_cd": "409", "j_lon": "-73.8341", "j_lat": "40.7043", "pluto_addr": "83-96 118 STREET", "pluto_resu": "44", "_hpdcompla": "1" }, "geometry": { "type": "Point", "coordinates": [ -73.834053781885927, 40.704348724972895 ] } },
{ "type": "Feature", "properties": { "BBL": 4033220040.000000, "j_2007uc": "121", "j_2016uc": "72", "j_cd": "409", "j_lon": "-73.8338", "j_lat": "40.7058", "pluto_addr": "83-57 118 STREET", "pluto_resu": "186", "_hpdcompla": "4" }, "geometry": { "type": "Point", "coordinates": [ -73.83380970651163, 40.705783139685181 ] } },
{ "type": "Feature", "properties": { "BBL": 4092360033.000000, "j_2007uc": "57", "j_2016uc": "57", "j_cd": "409", "j_lon": "-73.8309", "j_lat": "40.7033", "pluto_addr": "120-07 85 AVENUE", "pluto_resu": "57", "_hpdcompla": "5" }, "geometry": { "type": "Point", "coordinates": [ -73.830928818709396, 40.703341041911862 ] } },
{ "type": "Feature", "properties": { "BBL": 4092350034.000000, "j_2007uc": "17", "j_2016uc": "17", "j_cd": "409", "j_lon": "-73.832", "j_lat": "40.7031", "pluto_addr": "84-47 LEFFERTS BOULEVARD", "pluto_resu": "18", "_hpdcompla": "2" }, "geometry": { "type": "Point", "coordinates": [ -73.831951076144165, 40.703070641754358 ] } },
{ "type": "Feature", "properties": { "BBL": 4093510001.000000, "j_2007uc": "29", "j_2016uc": "38", "j_cd": "409", "j_lon": "-73.8285", "j_lat": "40.6957", "pluto_addr": "119-02 91 AVENUE", "pluto_resu": "38", "_hpdcompla": "2" }, "geometry": { "type": "Point", "coordinates": [ -73.828477625936131, 40.695742185843194 ] } },
{ "type": "Feature", "properties": { "BBL": 4092810044.000000, "j_2007uc": null, "j_2016uc": "117", "j_cd": "409", "j_lon": "-73.8232", "j_lat": "40.7021", "pluto_addr": "129-01 JAMAICA AVENUE", "pluto_resu": "117", "_hpdcompla": "2" }, "geometry": { "type": "Point", "coordinates": [ -73.823203640472116, 40.702149737992521 ] } },
{ "type": "Feature", "properties": { "BBL": 4116000026.000000, "j_2007uc": "40", "j_2016uc": "41", "j_cd": "410", "j_lon": "-73.8208", "j_lat": "40.6809", "pluto_addr": "119-17 111 AVENUE", "pluto_resu": "42", "_hpdcompla": "4" }, "geometry": { "type": "Point", "coordinates": [ -73.820830240573926, 40.680920419075989 ] } },
{ "type": "Feature", "properties": { "BBL": 4096290001.000000, "j_2007uc": "16", "j_2016uc": "14", "j_cd": "409", "j_lon": "-73.8214", "j_lat": "40.705", "pluto_addr": "131-11 KEW GARDENS ROAD", "pluto_resu": "84", "_hpdcompla": "1" }, "geometry": { "type": "Point", "coordinates": [ -73.821420068758954, 40.705035086250852 ] } },
{ "type": "Feature", "properties": { "BBL": 4096930019.000000, "j_2007uc": "111", "j_2016uc": "112", "j_cd": "412", "j_lon": "-73.8071", "j_lat": "40.7052", "pluto_addr": "148-28 88 AVENUE", "pluto_resu": "114", "_hpdcompla": "2" }, "geometry": { "type": "Point", "coordinates": [ -73.807082549266497, 40.705165317856554 ] } },
{ "type": "Feature", "properties": { "BBL": 4099780034.000000, "j_2007uc": "31", "j_2016uc": "32", "j_cd": "412", "j_lon": "-73.8128", "j_lat": "40.7007", "pluto_addr": "90-25 138 PLACE", "pluto_resu": "32", "_hpdcompla": "4" }, "geometry": { "type": "Point", "coordinates": [ -73.812791085952341, 40.700657990159179 ] } },
{ "type": "Feature", "properties": { "BBL": 4096790052.000000, "j_2007uc": "117", "j_2016uc": "118", "j_cd": "412", "j_lon": "-73.8057", "j_lat": "40.7032", "pluto_addr": "90-11 149 STREET", "pluto_resu": "120", "_hpdcompla": "1" }, "geometry": { "type": "Point", "coordinates": [ -73.805744629388641, 40.703208917236893 ] } },
{ "type": "Feature", "properties": { "BBL": 4096790063.000000, "j_2007uc": "20", "j_2016uc": "20", "j_cd": "412", "j_lon": "-73.8053", "j_lat": "40.7032", "pluto_addr": "90-16 150 STREET", "pluto_resu": "19", "_hpdcompla": "1" }, "geometry": { "type": "Point", "coordinates": [ -73.805257563014763, 40.703221378643065 ] } },
{ "type": "Feature", "properties": { "BBL": 4099780001.000000, "j_2007uc": "39", "j_2016uc": "39", "j_cd": "412", "j_lon": "-73.813", "j_lat": "40.7011", "pluto_addr": "138-28 90 AVENUE", "pluto_resu": "40", "_hpdcompla": "3" }, "geometry": { "type": "Point", "coordinates": [ -73.813006490812128, 40.701085594344057 ] } },
{ "type": "Feature", "properties": { "BBL": 4123110050.000000, "j_2007uc": "47", "j_2016uc": "47", "j_cd": "412", "j_lon": "-73.7787", "j_lat": "40.6683", "pluto_addr": "156-01 NORTH CONDUIT AVENUE", "pluto_resu": "46", "_hpdcompla": "3" }, "geometry": { "type": "Point", "coordinates": [ -73.778716476370917, 40.668301468462843 ] } },
{ "type": "Feature", "properties": { "BBL": 4101700050.000000, "j_2007uc": "220", "j_2016uc": "221", "j_cd": "412", "j_lon": "-73.7887", "j_lat": "40.6993", "pluto_addr": "107-02 MERRICK BOULEVARD", "pluto_resu": "1", "_hpdcompla": "1" }, "geometry": { "type": "Point", "coordinates": [ -73.788719651088172, 40.699319509072744 ] } },
{ "type": "Feature", "properties": { "BBL": 4123340273.000000, "j_2007uc": "79", "j_2016uc": "77", "j_cd": "412", "j_lon": "-73.7795", "j_lat": "40.6911", "pluto_addr": "114-05 170 STREET", "pluto_resu": "77", "_hpdcompla": "4" }, "geometry": { "type": "Point", "coordinates": [ -73.779519181006151, 40.691100307498637 ] } },
{ "type": "Feature", "properties": { "BBL": 4157530072.000000, "j_2007uc": "74", "j_2016uc": "75", "j_cd": "414", "j_lon": "-73.7582", "j_lat": "40.602", "pluto_addr": "23-11 CORNAGA AVENUE", "pluto_resu": "76", "_hpdcompla": "1" }, "geometry": { "type": "Point", "coordinates": [ -73.758183673455747, 40.602031429734183 ] } },
{ "type": "Feature", "properties": { "BBL": 4156610055.000000, "j_2007uc": "27", "j_2016uc": "27", "j_cd": "414", "j_lon": "-73.7559", "j_lat": "40.6063", "pluto_addr": "22-29 DIX AVENUE", "pluto_resu": "27", "_hpdcompla": "2" }, "geometry": { "type": "Point", "coordinates": [ -73.755862416430375, 40.606293452844781 ] } },
{ "type": "Feature", "properties": { "BBL": 4156610041.000000, "j_2007uc": "30", "j_2016uc": "30", "j_cd": "414", "j_lon": "-73.7567", "j_lat": "40.6065", "pluto_addr": "22-51 DIX AVENUE", "pluto_resu": "30", "_hpdcompla": "4" }, "geometry": { "type": "Point", "coordinates": [ -73.756685119794284, 40.606480194896669 ] } },
{ "type": "Feature", "properties": { "BBL": 4157060001.000000, "j_2007uc": "72", "j_2016uc": "72", "j_cd": "414", "j_lon": "-73.7557", "j_lat": "40.6026", "pluto_addr": "22-06 CORNAGA AVENUE", "pluto_resu": "72", "_hpdcompla": "4" }, "geometry": { "type": "Point", "coordinates": [ -73.755672329544382, 40.602651521248951 ] } },
{ "type": "Feature", "properties": { "BBL": 4156610012.000000, "j_2007uc": "132", "j_2016uc": "132", "j_cd": "414", "j_lon": "-73.7564", "j_lat": "40.6059", "pluto_addr": "22-30 MOTT AVENUE", "pluto_resu": "131", "_hpdcompla": "2" }, "geometry": { "type": "Point", "coordinates": [ -73.756445973399096, 40.605887508402773 ] } },
{ "type": "Feature", "properties": { "BBL": 4156610045.000000, "j_2007uc": "30", "j_2016uc": "30", "j_cd": "414", "j_lon": "-73.7564", "j_lat": "40.6064", "pluto_addr": "22-45 DIX AVENUE", "pluto_resu": "30", "_hpdcompla": "2" }, "geometry": { "type": "Point", "coordinates": [ -73.756412104501962, 40.606431939865068 ] } },
{ "type": "Feature", "properties": { "BBL": 4156610031.000000, "j_2007uc": "17", "j_2016uc": "17", "j_cd": "414", "j_lon": "-73.757", "j_lat": "40.6066", "pluto_addr": "22-59 DIX AVENUE", "pluto_resu": "17", "_hpdcompla": "8" }, "geometry": { "type": "Point", "coordinates": [ -73.756974074984328, 40.606602246819001 ] } },
{ "type": "Feature", "properties": { "BBL": 4156610049.000000, "j_2007uc": "26", "j_2016uc": "26", "j_cd": "414", "j_lon": "-73.7561", "j_lat": "40.6064", "pluto_addr": "22-37 DIX AVENUE", "pluto_resu": "26", "_hpdcompla": "4" }, "geometry": { "type": "Point", "coordinates": [ -73.756136646655946, 40.606362274751156 ] } },
{ "type": "Feature", "properties": { "BBL": 4155560001.000000, "j_2007uc": "60", "j_2016uc": "60", "j_cd": "414", "j_lon": "-73.7486", "j_lat": "40.6033", "pluto_addr": "10-12 NAMEOKE STREET", "pluto_resu": "60", "_hpdcompla": "2" }, "geometry": { "type": "Point", "coordinates": [ -73.748645838922485, 40.603301408988763 ] } },
{ "type": "Feature", "properties": { "BBL": 4155410017.000000, "j_2007uc": "179", "j_2016uc": "179", "j_cd": "414", "j_lon": "-73.748", "j_lat": "40.6079", "pluto_addr": "12-61 CENTRAL AVENUE", "pluto_resu": "180", "_hpdcompla": "3" }, "geometry": { "type": "Point", "coordinates": [ -73.748032666496172, 40.607877325300429 ] } },
{ "type": "Feature", "properties": { "BBL": 4155720001.000000, "j_2007uc": "104", "j_2016uc": "104", "j_cd": "414", "j_lon": "-73.746", "j_lat": "40.6022", "pluto_addr": "7-07 BEACH 9 STREET", "pluto_resu": "104", "_hpdcompla": "1" }, "geometry": { "type": "Point", "coordinates": [ -73.745985693081678, 40.602220073172333 ] } },
{ "type": "Feature", "properties": { "BBL": 4155160119.000000, "j_2007uc": "28", "j_2016uc": "40", "j_cd": "414", "j_lon": "-73.7466", "j_lat": "40.6051", "pluto_addr": "9-10 DINSMORE AVENUE", "pluto_resu": "37", "_hpdcompla": "2" }, "geometry": { "type": "Point", "coordinates": [ -73.746595609990976, 40.605126326385438 ] } },
{ "type": "Feature", "properties": { "BBL": 4155560063.000000, "j_2007uc": "60", "j_2016uc": "60", "j_cd": "414", "j_lon": "-73.7481", "j_lat": "40.6033", "pluto_addr": "10-11 NEILSON STREET", "pluto_resu": "60", "_hpdcompla": "2" }, "geometry": { "type": "Point", "coordinates": [ -73.748083829162724, 40.603311186204103 ] } },
{ "type": "Feature", "properties": { "BBL": 4155440010.000000, "j_2007uc": null, "j_2016uc": "17", "j_cd": "414", "j_lon": "-73.7499", "j_lat": "40.6052", "pluto_addr": "11-27 NAMEOKE STREET", "pluto_resu": "17", "_hpdcompla": "4" }, "geometry": { "type": "Point", "coordinates": [ -73.749910395705797, 40.605200027313828 ] } },
{ "type": "Feature", "properties": { "BBL": 4135380201.000000, "j_2007uc": "16", "j_2016uc": "16", "j_cd": "413", "j_lon": "-73.7473", "j_lat": "40.6593", "pluto_addr": "145-39 232 STREET", "pluto_resu": "16", "_hpdcompla": "1" }, "geometry": { "type": "Point", "coordinates": [ -73.747232820658624, 40.659253529966875 ] } },
{ "type": "Feature", "properties": { "BBL": 4000300048.000000, "j_2007uc": "6", "j_2016uc": "4", "j_cd": "402", "j_lon": "-73.9538", "j_lat": "40.7446", "pluto_addr": "47-34 VERNON BOULEVARD", "pluto_resu": "4", "_hpdcompla": "2" }, "geometry": { "type": "Point", "coordinates": [ -73.953791360238554, 40.74461502302384 ] } },
{ "type": "Feature", "properties": { "BBL": 4000440023.000000, "j_2007uc": "23", "j_2016uc": "24", "j_cd": "402", "j_lon": "-73.9518", "j_lat": "40.7433", "pluto_addr": "10-51 49 AVENUE", "pluto_resu": "17", "_hpdcompla": "1" }, "geometry": { "type": "Point", "coordinates": [ -73.9517661137115, 40.743262215563867 ] } },
{ "type": "Feature", "properties": { "BBL": 4000620030.000000, "j_2007uc": "29", "j_2016uc": "25", "j_cd": "402", "j_lon": "-73.9495", "j_lat": "40.7423", "pluto_addr": "49-02 21 STREET", "pluto_resu": "30", "_hpdcompla": "1" }, "geometry": { "type": "Point", "coordinates": [ -73.949526486014207, 40.742333345490422 ] } },
{ "type": "Feature", "properties": { "BBL": 4033940054.000000, "j_2007uc": "6", "j_2016uc": "6", "j_cd": "405", "j_lon": null, "j_lat": null, "pluto_addr": "18-67 TROUTMAN STREET", "pluto_resu": "6", "_hpdcompla": "1" }, "geometry": { "type": "Point", "coordinates": [ -73.918362407946049, 40.711322930636214 ] } },
{ "type": "Feature", "properties": { "BBL": 4002070001.000000, "j_2007uc": "132", "j_2016uc": "132", "j_cd": "402", "j_lon": "-73.9267", "j_lat": "40.7386", "pluto_addr": "39-20 GREENPOINT AVENUE", "pluto_resu": "140", "_hpdcompla": "4" }, "geometry": { "type": "Point", "coordinates": [ -73.926659201765148, 40.738555396035991 ] } },
{ "type": "Feature", "properties": { "BBL": 4003940042.000000, "j_2007uc": "28", "j_2016uc": "28", "j_cd": "401", "j_lon": "-73.9387", "j_lat": "40.7542", "pluto_addr": "39-44 24 STREET", "pluto_resu": "30", "_hpdcompla": "2" }, "geometry": { "type": "Point", "coordinates": [ -73.938744333853407, 40.754183966747853 ] } },
{ "type": "Feature", "properties": { "BBL": 4003420018.000000, "j_2007uc": "71", "j_2016uc": "71", "j_cd": "401", "j_lon": "-73.9313", "j_lat": "40.757", "pluto_addr": "29-02 29 STREET", "pluto_resu": "71", "_hpdcompla": "1" }, "geometry": { "type": "Point", "coordinates": [ -73.93131601971524, 40.756961241740626 ] } },
{ "type": "Feature", "properties": { "BBL": 4003850015.000000, "j_2007uc": "14", "j_2016uc": "15", "j_cd": "401", "j_lon": "-73.9339", "j_lat": "40.7546", "pluto_addr": "38-02 29 STREET", "pluto_resu": "15", "_hpdcompla": "2" }, "geometry": { "type": "Point", "coordinates": [ -73.933896279978555, 40.754596238138461 ] } },
{ "type": "Feature", "properties": { "BBL": 4003840001.000000, "j_2007uc": "31", "j_2016uc": "31", "j_cd": "401", "j_lon": "-73.9341", "j_lat": "40.7535", "pluto_addr": "29-05 29 STREET", "pluto_resu": "33", "_hpdcompla": "1" }, "geometry": { "type": "Point", "coordinates": [ -73.934109522215934, 40.753544348774142 ] } },
{ "type": "Feature", "properties": { "BBL": 4001960012.000000, "j_2007uc": "46", "j_2016uc": "54", "j_cd": "402", "j_lon": "-73.9236", "j_lat": "40.741", "pluto_addr": "47-21 41 STREET", "pluto_resu": "58", "_hpdcompla": "1" }, "geometry": { "type": "Point", "coordinates": [ -73.923596736817984, 40.740954743384357 ] } },
{ "type": "Feature", "properties": { "BBL": 4001650001.000000, "j_2007uc": "50", "j_2016uc": "50", "j_cd": "402", "j_lon": "-73.9197", "j_lat": "40.7415", "pluto_addr": "45-59 45 STREET", "pluto_resu": "50", "_hpdcompla": "1" }, "geometry": { "type": "Point", "coordinates": [ -73.919698894020542, 40.741465637744149 ] } },
{ "type": "Feature", "properties": { "BBL": 4001530033.000000, "j_2007uc": "42", "j_2016uc": "32", "j_cd": "402", "j_lon": "-73.9183", "j_lat": "40.7417", "pluto_addr": "45-34 47 STREET", "pluto_resu": "46", "_hpdcompla": "1" }, "geometry": { "type": "Point", "coordinates": [ -73.918320460169454, 40.741737758646202 ] } },
{ "type": "Feature", "properties": { "BBL": 4001900016.000000, "j_2007uc": "40", "j_2016uc": "40", "j_cd": "402", "j_lon": "-73.9247", "j_lat": "40.745", "pluto_addr": "43-19 39 PLACE", "pluto_resu": "40", "_hpdcompla": "1" }, "geometry": { "type": "Point", "coordinates": [ -73.924680850797728, 40.745046868602437 ] } },
{ "type": "Feature", "properties": { "BBL": 4022890036.000000, "j_2007uc": "20", "j_2016uc": "20", "j_cd": "402", "j_lon": "-73.9198", "j_lat": "40.7389", "pluto_addr": "48-12 46 STREET", "pluto_resu": "20", "_hpdcompla": "1" }, "geometry": { "type": "Point", "coordinates": [ -73.919836692631861, 40.738910929150705 ] } },
{ "type": "Feature", "properties": { "BBL": 4001920040.000000, "j_2007uc": "17", "j_2016uc": "19", "j_cd": "402", "j_lon": "-73.9229", "j_lat": "40.7427", "pluto_addr": "45-24 42 STREET", "pluto_resu": "20", "_hpdcompla": "1" }, "geometry": { "type": "Point", "coordinates": [ -73.922865105664044, 40.742746441479589 ] } },
{ "type": "Feature", "properties": { "BBL": 4001620011.000000, "j_2007uc": "25", "j_2016uc": "18", "j_cd": "402", "j_lon": "-73.921", "j_lat": "40.7443", "pluto_addr": "43-25 43 STREET", "pluto_resu": "60", "_hpdcompla": "2" }, "geometry": { "type": "Point", "coordinates": [ -73.920986239067616, 40.744347436603171 ] } },
{ "type": "Feature", "properties": { "BBL": 4001997501.000000, "j_2007uc": null, "j_2016uc": null, "j_cd": "402", "j_lon": "-73.9256", "j_lat": "40.7403", "pluto_addr": "47-55 39 PLACE", "pluto_resu": "47", "_hpdcompla": "2" }, "geometry": { "type": "Point", "coordinates": [ -73.925628257674219, 40.740275472280771 ] } },
{ "type": "Feature", "properties": { "BBL": 4001920003.000000, "j_2007uc": "17", "j_2016uc": "13", "j_cd": "402", "j_lon": "-73.9231", "j_lat": "40.7419", "pluto_addr": "41-11 47 AVENUE", "pluto_resu": "20", "_hpdcompla": "1" }, "geometry": { "type": "Point", "coordinates": [ -73.923131707970356, 40.741868376832585 ] } },
{ "type": "Feature", "properties": { "BBL": 4001630014.000000, "j_2007uc": "56", "j_2016uc": "56", "j_cd": "402", "j_lon": "-73.9219", "j_lat": "40.7446", "pluto_addr": "43-23 42 STREET", "pluto_resu": "60", "_hpdcompla": "2" }, "geometry": { "type": "Point", "coordinates": [ -73.921931103135606, 40.744566889004126 ] } },
{ "type": "Feature", "properties": { "BBL": 4001710001.000000, "j_2007uc": "13", "j_2016uc": "13", "j_cd": "402", "j_lon": "-73.921", "j_lat": "40.7397", "pluto_addr": "47-57 44 STREET", "pluto_resu": "14", "_hpdcompla": "2" }, "geometry": { "type": "Point", "coordinates": [ -73.921009258310164, 40.739652775231065 ] } },
{ "type": "Feature", "properties": { "BBL": 4001400040.000000, "j_2007uc": "22", "j_2016uc": "17", "j_cd": "402", "j_lon": "-73.917", "j_lat": "40.7438", "pluto_addr": "43-30 48 STREET", "pluto_resu": "91", "_hpdcompla": "8" }, "geometry": { "type": "Point", "coordinates": [ -73.916995141470281, 40.743794839420779 ] } },
{ "type": "Feature", "properties": { "BBL": 4001397501.000000, "j_2007uc": null, "j_2016uc": "25", "j_cd": "402", "j_lon": "-73.9164", "j_lat": "40.7436", "pluto_addr": "43-33 48 STREET", "pluto_resu": "58", "_hpdcompla": "2" }, "geometry": { "type": "Point", "coordinates": [ -73.916399610304254, 40.743630386540261 ] } },
{ "type": "Feature", "properties": { "BBL": 4013140003.000000, "j_2007uc": "109", "j_2016uc": "109", "j_cd": "402", "j_lon": "-73.9132", "j_lat": "40.7447", "pluto_addr": "41-41 51 STREET", "pluto_resu": "112", "_hpdcompla": "3" }, "geometry": { "type": "Point", "coordinates": [ -73.913195643855644, 40.744731736769687 ] } },
{ "type": "Feature", "properties": { "BBL": 4001390024.000000, "j_2007uc": "53", "j_2016uc": "56", "j_cd": "402", "j_lon": "-73.9159", "j_lat": "40.7442", "pluto_addr": "43-10 49 STREET", "pluto_resu": "60", "_hpdcompla": "1" }, "geometry": { "type": "Point", "coordinates": [ -73.915924603330708, 40.744233405214537 ] } },
{ "type": "Feature", "properties": { "BBL": 4001570032.000000, "j_2007uc": "7", "j_2016uc": "7", "j_cd": "402", "j_lon": "-73.9194", "j_lat": "40.746", "pluto_addr": "41-22 45 STREET", "pluto_resu": "8", "_hpdcompla": "1" }, "geometry": { "type": "Point", "coordinates": [ -73.919357953836695, 40.746025569835794 ] } },
{ "type": "Feature", "properties": { "BBL": 4001590001.000000, "j_2007uc": "141", "j_2016uc": "148", "j_cd": "402", "j_lon": "-73.9215", "j_lat": "40.7456", "pluto_addr": "42-15 43 AVENUE", "pluto_resu": "154", "_hpdcompla": "1" }, "geometry": { "type": "Point", "coordinates": [ -73.921542334881849, 40.745644691788947 ] } },
{ "type": "Feature", "properties": { "BBL": 4001370004.000000, "j_2007uc": "101", "j_2016uc": "86", "j_cd": "402", "j_lon": "-73.9179", "j_lat": "40.7452", "pluto_addr": "41-41 46 STREET", "pluto_resu": "106", "_hpdcompla": "1" }, "geometry": { "type": "Point", "coordinates": [ -73.917946970733354, 40.74517157233246 ] } },
{ "type": "Feature", "properties": { "BBL": 4001850017.000000, "j_2007uc": "80", "j_2016uc": "78", "j_cd": "402", "j_lon": "-73.9234", "j_lat": "40.7468", "pluto_addr": "41-11 40 STREET", "pluto_resu": "85", "_hpdcompla": "2" }, "geometry": { "type": "Point", "coordinates": [ -73.923368292201687, 40.746827280929118 ] } },
{ "type": "Feature", "properties": { "BBL": 4001370020.000000, "j_2007uc": "90", "j_2016uc": "94", "j_cd": "402", "j_lon": "-73.9178", "j_lat": "40.746", "pluto_addr": "41-15 46 STREET", "pluto_resu": "96", "_hpdcompla": "5" }, "geometry": { "type": "Point", "coordinates": [ -73.917779300248981, 40.745955563456633 ] } },
{ "type": "Feature", "properties": { "BBL": 4006450017.000000, "j_2007uc": null, "j_2016uc": null, "j_cd": "401", "j_lon": "-73.9228", "j_lat": "40.7566", "pluto_addr": "34-27 37 STREET", "pluto_resu": "8", "_hpdcompla": "2" }, "geometry": { "type": "Point", "coordinates": [ -73.922809231632684, 40.756574859232117 ] } },
{ "type": "Feature", "properties": { "BBL": 4007030022.000000, "j_2007uc": null, "j_2016uc": null, "j_cd": "401", "j_lon": "-73.9187", "j_lat": "40.7548", "pluto_addr": "34-21 43 STREET", "pluto_resu": "6", "_hpdcompla": "3" }, "geometry": { "type": "Point", "coordinates": [ -73.918711453480299, 40.75484329229694 ] } },
{ "type": "Feature", "properties": { "BBL": 4013140017.000000, "j_2007uc": "56", "j_2016uc": "55", "j_cd": "402", "j_lon": "-73.913", "j_lat": "40.7454", "pluto_addr": "41-15 51 STREET", "pluto_resu": "61", "_hpdcompla": "1" }, "geometry": { "type": "Point", "coordinates": [ -73.913039337839592, 40.745431159740889 ] } },
{ "type": "Feature", "properties": { "BBL": 4013150063.000000, "j_2007uc": null, "j_2016uc": "6", "j_cd": "402", "j_lon": "-73.9116", "j_lat": "40.7452", "pluto_addr": "41-20 53 STREET", "pluto_resu": "6", "_hpdcompla": "5" }, "geometry": { "type": "Point", "coordinates": [ -73.911644517849709, 40.745159299354675 ] } },
{ "type": "Feature", "properties": { "BBL": 4001480001.000000, "j_2007uc": "56", "j_2016uc": "51", "j_cd": "402", "j_lon": "-73.9166", "j_lat": "40.7466", "pluto_addr": "47-09 SKILLMAN AVENUE", "pluto_resu": "60", "_hpdcompla": "4" }, "geometry": { "type": "Point", "coordinates": [ -73.916595610369328, 40.746601755716291 ] } },
{ "type": "Feature", "properties": { "BBL": 4001330070.000000, "j_2007uc": "73", "j_2016uc": "75", "j_cd": "402", "j_lon": "-73.9155", "j_lat": "40.7466", "pluto_addr": "39-88 49 STREET", "pluto_resu": "75", "_hpdcompla": "1" }, "geometry": { "type": "Point", "coordinates": [ -73.915464313824046, 40.746587104394635 ] } },
{ "type": "Feature", "properties": { "BBL": 4007070025.000000, "j_2007uc": "20", "j_2016uc": "20", "j_cd": "401", "j_lon": "-73.9163", "j_lat": "40.7565", "pluto_addr": "32-33 44 STREET", "pluto_resu": "21", "_hpdcompla": "1" }, "geometry": { "type": "Point", "coordinates": [ -73.916252735137491, 40.756512988192519 ] } },
{ "type": "Feature", "properties": { "BBL": 4003290011.000000, "j_2007uc": null, "j_2016uc": "7", "j_cd": "401", "j_lon": "-73.9409", "j_lat": "40.7623", "pluto_addr": "35-41 9 STREET", "pluto_resu": "6", "_hpdcompla": "2" }, "geometry": { "type": "Point", "coordinates": [ -73.940929901298247, 40.762310145184713 ] } },
{ "type": "Feature", "properties": { "BBL": 4003200020.000000, "j_2007uc": "3", "j_2016uc": null, "j_cd": "401", "j_lon": "-73.9385", "j_lat": "40.7662", "pluto_addr": "33-15 9 STREET", "pluto_resu": "6", "_hpdcompla": "1" }, "geometry": { "type": "Point", "coordinates": [ -73.938504782100267, 40.766204649005019 ] } },
{ "type": "Feature", "properties": { "BBL": 4003190003.000000, "j_2007uc": "14", "j_2016uc": "14", "j_cd": "401", "j_lon": "-73.938", "j_lat": "40.765", "pluto_addr": "10-11 34 AVENUE", "pluto_resu": "16", "_hpdcompla": "1" }, "geometry": { "type": "Point", "coordinates": [ -73.938002466277311, 40.764964950530008 ] } },
{ "type": "Feature", "properties": { "BBL": 4003240009.000000, "j_2007uc": "6", "j_2016uc": "6", "j_cd": "401", "j_lon": "-73.9399", "j_lat": "40.764", "pluto_addr": "34-41 9 STREET", "pluto_resu": "6", "_hpdcompla": "2" }, "geometry": { "type": "Point", "coordinates": [ -73.939910191678763, 40.763954578738321 ] } },
{ "type": "Feature", "properties": { "BBL": 4005790032.000000, "j_2007uc": "75", "j_2016uc": "70", "j_cd": "401", "j_lon": "-73.9269", "j_lat": "40.7644", "pluto_addr": "31-45 CRESCENT STREET", "pluto_resu": "77", "_hpdcompla": "1" }, "geometry": { "type": "Point", "coordinates": [ -73.926937685261208, 40.764366622552771 ] } },
{ "type": "Feature", "properties": { "BBL": 4005330047.000000, "j_2007uc": "5", "j_2016uc": "5", "j_cd": "401", "j_lon": "-73.9302", "j_lat": "40.7672", "pluto_addr": "14-58 31 AVENUE", "pluto_resu": "8", "_hpdcompla": "2" }, "geometry": { "type": "Point", "coordinates": [ -73.930211715805925, 40.767199822374359 ] } },
{ "type": "Feature", "properties": { "BBL": 4009030007.000000, "j_2007uc": "7", "j_2016uc": "8", "j_cd": "401", "j_lon": "-73.9305", "j_lat": "40.7743", "pluto_addr": "26-45 9 STREET", "pluto_resu": "108", "_hpdcompla": "3" }, "geometry": { "type": "Point", "coordinates": [ -73.93046457196742, 40.774327233792853 ] } },
{ "type": "Feature", "properties": { "BBL": 4005880038.000000, "j_2007uc": "61", "j_2016uc": "49", "j_cd": "401", "j_lon": "-73.925", "j_lat": "40.7647", "pluto_addr": "29-08 31 AVENUE", "pluto_resu": "67", "_hpdcompla": "3" }, "geometry": { "type": "Point", "coordinates": [ -73.924961345708851, 40.764735824989096 ] } },
{ "type": "Feature", "properties": { "BBL": 4006240045.000000, "j_2007uc": "6", "j_2016uc": "6", "j_cd": "401", "j_lon": "-73.9206", "j_lat": "40.7627", "pluto_addr": "34-20 31 AVENUE", "pluto_resu": "6", "_hpdcompla": "2" }, "geometry": { "type": "Point", "coordinates": [ -73.920554091380609, 40.762701293792546 ] } },
{ "type": "Feature", "properties": { "BBL": 4005920003.000000, "j_2007uc": "17", "j_2016uc": "20", "j_cd": "401", "j_lon": "-73.9239", "j_lat": "40.7661", "pluto_addr": "30-57 29 STREET", "pluto_resu": "20", "_hpdcompla": "1" }, "geometry": { "type": "Point", "coordinates": [ -73.92390728648256, 40.766091892312055 ] } },
{ "type": "Feature", "properties": { "BBL": 4005930136.000000, "j_2007uc": null, "j_2016uc": "8", "j_cd": "401", "j_lon": "-73.9222", "j_lat": "40.7663", "pluto_addr": "30-26 31 STREET", "pluto_resu": "8", "_hpdcompla": "1" }, "geometry": { "type": "Point", "coordinates": [ -73.92219951960962, 40.766342242663633 ] } },
{ "type": "Feature", "properties": { "BBL": 4005760001.000000, "j_2007uc": "45", "j_2016uc": "33", "j_cd": "401", "j_lon": "-73.9239", "j_lat": "40.7675", "pluto_addr": "25-41 30 ROAD", "pluto_resu": "57", "_hpdcompla": "4" }, "geometry": { "type": "Point", "coordinates": [ -73.923898902767249, 40.767454500975987 ] } },
{ "type": "Feature", "properties": { "BBL": 4005920047.000000, "j_2007uc": "45", "j_2016uc": "36", "j_cd": "401", "j_lon": "-73.9236", "j_lat": "40.766", "pluto_addr": "30-56 30 STREET", "pluto_resu": "60", "_hpdcompla": "1" }, "geometry": { "type": "Point", "coordinates": [ -73.923549915220946, 40.766004705243368 ] } },
{ "type": "Feature", "properties": { "BBL": 4006150066.000000, "j_2007uc": "25", "j_2016uc": "25", "j_cd": "401", "j_lon": "-73.9223", "j_lat": "40.7648", "pluto_addr": "30-74 32 STREET", "pluto_resu": "25", "_hpdcompla": "2" }, "geometry": { "type": "Point", "coordinates": [ -73.922294640547491, 40.764832576273811 ] } },
{ "type": "Feature", "properties": { "BBL": 4006190006.000000, "j_2007uc": "80", "j_2016uc": "80", "j_cd": "401", "j_lon": "-73.9199", "j_lat": "40.767", "pluto_addr": "32-05 NEWTOWN AVENUE", "pluto_resu": "81", "_hpdcompla": "3" }, "geometry": { "type": "Point", "coordinates": [ -73.919890331045622, 40.766952886268982 ] } },
{ "type": "Feature", "properties": { "BBL": 4005970001.000000, "j_2007uc": "66", "j_2016uc": "63", "j_cd": "401", "j_lon": "-73.9211", "j_lat": "40.7688", "pluto_addr": "26-80 30 STREET", "pluto_resu": "96", "_hpdcompla": "1" }, "geometry": { "type": "Point", "coordinates": [ -73.921130120161749, 40.768774848335738 ] } },
{ "type": "Feature", "properties": { "BBL": 4006270001.000000, "j_2007uc": "16", "j_2016uc": "12", "j_cd": "401", "j_lon": "-73.9192", "j_lat": "40.7664", "pluto_addr": "28-49 33 STREET", "pluto_resu": "16", "_hpdcompla": "2" }, "geometry": { "type": "Point", "coordinates": [ -73.919232208919084, 40.766404387188651 ] } },
{ "type": "Feature", "properties": { "BBL": 4006970089.000000, "j_2007uc": "6", "j_2016uc": null, "j_cd": "401", "j_lon": "-73.9132", "j_lat": "40.761", "pluto_addr": "30-60 44 STREET", "pluto_resu": "6", "_hpdcompla": "1" }, "geometry": { "type": "Point", "coordinates": [ -73.913245269599599, 40.761021917802438 ] } },
{ "type": "Feature", "properties": { "BBL": 4006970093.000000, "j_2007uc": null, "j_2016uc": "6", "j_cd": "401", "j_lon": "-73.9135", "j_lat": "40.7608", "pluto_addr": "30-72 44 STREET", "pluto_resu": "6", "_hpdcompla": "1" }, "geometry": { "type": "Point", "coordinates": [ -73.913457256602712, 40.760761453330979 ] } },
{ "type": "Feature", "properties": { "BBL": 4006970061.000000, "j_2007uc": "9", "j_2016uc": "9", "j_cd": "401", "j_lon": "-73.9127", "j_lat": "40.7622", "pluto_addr": "30-17 43 STREET", "pluto_resu": "10", "_hpdcompla": "1" }, "geometry": { "type": "Point", "coordinates": [ -73.91273617816617, 40.762180667439431 ] } },
{ "type": "Feature", "properties": { "BBL": 4006320075.000000, "j_2007uc": "39", "j_2016uc": "38", "j_cd": "401", "j_lon": "-73.9173", "j_lat": "40.7674", "pluto_addr": "34-01 28 AVENUE", "pluto_resu": "41", "_hpdcompla": "2" }, "geometry": { "type": "Point", "coordinates": [ -73.917311787228755, 40.767412004539388 ] } },
{ "type": "Feature", "properties": { "BBL": 4006540039.000000, "j_2007uc": "7", "j_2016uc": "2", "j_cd": "401", "j_lon": "-73.9121", "j_lat": "40.7684", "pluto_addr": "24-39 38 STREET", "pluto_resu": "36", "_hpdcompla": "1" }, "geometry": { "type": "Point", "coordinates": [ -73.912099706044458, 40.768409398881374 ] } },
{ "type": "Feature", "properties": { "BBL": 4007150026.000000, "j_2007uc": "9", "j_2016uc": "9", "j_cd": "401", "j_lon": "-73.9092", "j_lat": "40.7652", "pluto_addr": "25-45 44 STREET", "pluto_resu": "9", "_hpdcompla": "2" }, "geometry": { "type": "Point", "coordinates": [ -73.909188296127979, 40.765191896767348 ] } },
{ "type": "Feature", "properties": { "BBL": 4008760085.000000, "j_2007uc": "16", "j_2016uc": "18", "j_cd": "401", "j_lon": "-73.9189", "j_lat": "40.7784", "pluto_addr": "21-06 23 AVENUE", "pluto_resu": "20", "_hpdcompla": "1" }, "geometry": { "type": "Point", "coordinates": [ -73.918889844157491, 40.778383432741542 ] } },
{ "type": "Feature", "properties": { "BBL": 4008460042.000000, "j_2007uc": "109", "j_2016uc": "95", "j_cd": "401", "j_lon": "-73.9093", "j_lat": "40.7778", "pluto_addr": "21-24 31 STREET", "pluto_resu": "116", "_hpdcompla": "3" }, "geometry": { "type": "Point", "coordinates": [ -73.909327893321034, 40.777790535946643 ] } },
{ "type": "Feature", "properties": { "BBL": 4008570022.000000, "j_2007uc": "11", "j_2016uc": "4", "j_cd": "401", "j_lon": "-73.9114", "j_lat": "40.7789", "pluto_addr": "21-27 27 STREET", "pluto_resu": "16", "_hpdcompla": "1" }, "geometry": { "type": "Point", "coordinates": [ -73.911400009391699, 40.778854312869733 ] } },
{ "type": "Feature", "properties": { "BBL": 4008600001.000000, "j_2007uc": "60", "j_2016uc": "60", "j_cd": "401", "j_lon": "-73.9109", "j_lat": "40.7801", "pluto_addr": "20-65 26 STREET", "pluto_resu": "60", "_hpdcompla": "1" }, "geometry": { "type": "Point", "coordinates": [ -73.910851368646831, 40.78014576631864 ] } },
{ "type": "Feature", "properties": { "BBL": 4008700012.000000, "j_2007uc": "43", "j_2016uc": "45", "j_cd": "401", "j_lon": "-73.911", "j_lat": "40.7813", "pluto_addr": "20-55 CRESCENT STREET", "pluto_resu": "45", "_hpdcompla": "1" }, "geometry": { "type": "Point", "coordinates": [ -73.911014743801957, 40.781258717380737 ] } },
{ "type": "Feature", "properties": { "BBL": 4034860001.000000, "j_2007uc": "6", "j_2016uc": "6", "j_cd": "405", "j_lon": "-73.9049", "j_lat": "40.7063", "pluto_addr": "2026 GATES AVENUE", "pluto_resu": "6", "_hpdcompla": "1" }, "geometry": { "type": "Point", "coordinates": [ -73.904938688103513, 40.706316303278882 ] } },
{ "type": "Feature", "properties": { "BBL": 4033730045.000000, "j_2007uc": null, "j_2016uc": "6", "j_cd": "405", "j_lon": "-73.9048", "j_lat": "40.7093", "pluto_addr": "63-50 FOREST AVENUE", "pluto_resu": "4", "_hpdcompla": "1" }, "geometry": { "type": "Point", "coordinates": [ -73.904760399574059, 40.70932957534928 ] } },
{ "type": "Feature", "properties": { "BBL": 4033740006.000000, "j_2007uc": "20", "j_2016uc": "15", "j_cd": "405", "j_lon": "-73.905", "j_lat": "40.7084", "pluto_addr": "607 GRANDVIEW AVENUE", "pluto_resu": "20", "_hpdcompla": "1" }, "geometry": { "type": "Point", "coordinates": [ -73.905035482127261, 40.708428331692275 ] } },
{ "type": "Feature", "properties": { "BBL": 4036130041.000000, "j_2007uc": "8", "j_2016uc": "8", "j_cd": "405", "j_lon": "-73.8963", "j_lat": "40.7083", "pluto_addr": "61-39 WOODBINE STREET", "pluto_resu": "8", "_hpdcompla": "1" }, "geometry": { "type": "Point", "coordinates": [ -73.896283007505048, 40.708318229571901 ] } },
{ "type": "Feature", "properties": { "BBL": 4036190027.000000, "j_2007uc": "8", "j_2016uc": null, "j_cd": "405", "j_lon": "-73.8964", "j_lat": "40.7071", "pluto_addr": "61-20 MADISON STREET", "pluto_resu": "8", "_hpdcompla": "6" }, "geometry": { "type": "Point", "coordinates": [ -73.89636003664242, 40.70709439552585 ] } },
{ "type": "Feature", "properties": { "BBL": 4036130014.000000, "j_2007uc": "6", "j_2016uc": "6", "j_cd": "405", "j_lon": "-73.8972", "j_lat": "40.7084", "pluto_addr": "61-18 PALMETTO STREET", "pluto_resu": "6", "_hpdcompla": "2" }, "geometry": { "type": "Point", "coordinates": [ -73.897203772188305, 40.708381819971109 ] } },
{ "type": "Feature", "properties": { "BBL": 4037740063.000000, "j_2007uc": "15", "j_2016uc": "15", "j_cd": "405", "j_lon": "-73.8772", "j_lat": "40.7116", "pluto_addr": "67-45 67 DRIVE", "pluto_resu": "14", "_hpdcompla": "1" }, "geometry": { "type": "Point", "coordinates": [ -73.877238904132795, 40.711630936055521 ] } },
{ "type": "Feature", "properties": { "BBL": 4013330086.000000, "j_2007uc": "64", "j_2016uc": "64", "j_cd": "402", "j_lon": "-73.9047", "j_lat": "40.7424", "pluto_addr": "43-14 60 STREET", "pluto_resu": "64", "_hpdcompla": "1" }, "geometry": { "type": "Point", "coordinates": [ -73.904670951313761, 40.742394221965426 ] } },
{ "type": "Feature", "properties": { "BBL": 4023190010.000000, "j_2007uc": "200", "j_2016uc": "215", "j_cd": "402", "j_lon": "-73.9069", "j_lat": "40.7395", "pluto_addr": "47-50 59 STREET", "pluto_resu": "233", "_hpdcompla": "2" }, "geometry": { "type": "Point", "coordinates": [ -73.906900234988498, 40.739492414225673 ] } },
{ "type": "Feature", "properties": { "BBL": 4011880055.000000, "j_2007uc": "12", "j_2016uc": "6", "j_cd": "402", "j_lon": "-73.9014", "j_lat": "40.7514", "pluto_addr": "60-11 BROADWAY", "pluto_resu": "126", "_hpdcompla": "1" }, "geometry": { "type": "Point", "coordinates": [ -73.901432353914373, 40.751359856727184 ] } },
{ "type": "Feature", "properties": { "BBL": 4012160008.000000, "j_2007uc": "23", "j_2016uc": "18", "j_cd": "402", "j_lon": "-73.9022", "j_lat": "40.7476", "pluto_addr": "37-65 61 STREET", "pluto_resu": "23", "_hpdcompla": "2" }, "geometry": { "type": "Point", "coordinates": [ -73.902171736126064, 40.747583440244178 ] } },
{ "type": "Feature", "properties": { "BBL": 4012990024.000000, "j_2007uc": "33", "j_2016uc": "28", "j_cd": "402", "j_lon": "-73.8978", "j_lat": "40.7459", "pluto_addr": "40-07 67 STREET", "pluto_resu": "34", "_hpdcompla": "1" }, "geometry": { "type": "Point", "coordinates": [ -73.897789776954994, 40.745879671994182 ] } },
{ "type": "Feature", "properties": { "BBL": 4012740001.000000, "j_2007uc": "210", "j_2016uc": "210", "j_cd": "403", "j_lon": "-73.8916", "j_lat": "40.7506", "pluto_addr": "74-10 35 AVENUE", "pluto_resu": "210", "_hpdcompla": "2" }, "geometry": { "type": "Point", "coordinates": [ -73.891569668386538, 40.750582824816412 ] } },
{ "type": "Feature", "properties": { "BBL": 4013050040.000000, "j_2007uc": "18", "j_2016uc": "18", "j_cd": "404", "j_lon": "-73.8916", "j_lat": "40.7461", "pluto_addr": "40-24 74 STREET", "pluto_resu": "18", "_hpdcompla": "1" }, "geometry": { "type": "Point", "coordinates": [ -73.891555199085133, 40.746054490617247 ] } },
{ "type": "Feature", "properties": { "BBL": 4015277501.000000, "j_2007uc": "6", "j_2016uc": "4", "j_cd": "404", "j_lon": "-73.8838", "j_lat": "40.7429", "pluto_addr": "42-15 81 STREET", "pluto_resu": "114", "_hpdcompla": "2" }, "geometry": { "type": "Point", "coordinates": [ -73.883762306034868, 40.742927867623195 ] } },
{ "type": "Feature", "properties": { "BBL": 4015260001.000000, "j_2007uc": "65", "j_2016uc": "54", "j_cd": "404", "j_lon": "-73.8845", "j_lat": "40.7434", "pluto_addr": "80-20 BROADWAY", "pluto_resu": "71", "_hpdcompla": "2" }, "geometry": { "type": "Point", "coordinates": [ -73.884508001008001, 40.743386975608146 ] } },
{ "type": "Feature", "properties": { "BBL": 4015080022.000000, "j_2007uc": "63", "j_2016uc": "65", "j_cd": "404", "j_lon": "-73.8836", "j_lat": "40.7443", "pluto_addr": "42-25 LAYTON STREET", "pluto_resu": "65", "_hpdcompla": "1" }, "geometry": { "type": "Point", "coordinates": [ -73.883590002519043, 40.744346824166584 ] } },
{ "type": "Feature", "properties": { "BBL": 4015260010.000000, "j_2007uc": "24", "j_2016uc": "25", "j_cd": "404", "j_lon": "-73.8842", "j_lat": "40.7432", "pluto_addr": "80-30 BROADWAY", "pluto_resu": "26", "_hpdcompla": "3" }, "geometry": { "type": "Point", "coordinates": [ -73.884219274816175, 40.743240251157282 ] } },
{ "type": "Feature", "properties": { "BBL": 4015560024.000000, "j_2007uc": "65", "j_2016uc": "63", "j_cd": "404", "j_lon": "-73.8767", "j_lat": "40.7448", "pluto_addr": "41-96 GLEANE STREET", "pluto_resu": "66", "_hpdcompla": "4" }, "geometry": { "type": "Point", "coordinates": [ -73.876744071459498, 40.744839699941558 ] } },
{ "type": "Feature", "properties": { "BBL": 4015810001.000000, "j_2007uc": "194", "j_2016uc": "194", "j_cd": "404", "j_lon": "-73.8783", "j_lat": "40.7404", "pluto_addr": "83-45 BROADWAY", "pluto_resu": "193", "_hpdcompla": "2" }, "geometry": { "type": "Point", "coordinates": [ -73.878283465408444, 40.740451737585502 ] } },
{ "type": "Feature", "properties": { "BBL": 4015820029.000000, "j_2007uc": "12", "j_2016uc": "27", "j_cd": "404", "j_lon": "-73.8769", "j_lat": "40.7408", "pluto_addr": "47-06 88 STREET", "pluto_resu": "28", "_hpdcompla": "1" }, "geometry": { "type": "Point", "coordinates": [ -73.876930606423159, 40.740758263358472 ] } },
{ "type": "Feature", "properties": { "BBL": 4015690001.000000, "j_2007uc": "90", "j_2016uc": "91", "j_cd": "404", "j_lon": "-73.8763", "j_lat": "40.7445", "pluto_addr": "89-10 WHITNEY AVENUE", "pluto_resu": "96", "_hpdcompla": "2" }, "geometry": { "type": "Point", "coordinates": [ -73.876263054488689, 40.744465502204619 ] } },
{ "type": "Feature", "properties": { "BBL": 4012750001.000000, "j_2007uc": "96", "j_2016uc": "96", "j_cd": "403", "j_lon": "-73.8907", "j_lat": "40.7509", "pluto_addr": "75-08 35 AVENUE", "pluto_resu": "96", "_hpdcompla": "3" }, "geometry": { "type": "Point", "coordinates": [ -73.890678902825471, 40.750896943905772 ] } },
{ "type": "Feature", "properties": { "BBL": 4014570056.000000, "j_2007uc": "67", "j_2016uc": "67", "j_cd": "403", "j_lon": "-73.8833", "j_lat": "40.7509", "pluto_addr": "35-33 83 STREET", "pluto_resu": "72", "_hpdcompla": "2" }, "geometry": { "type": "Point", "coordinates": [ -73.883283998341085, 40.750918055381575 ] } },
{ "type": "Feature", "properties": { "BBL": 4012910020.000000, "j_2007uc": "62", "j_2016uc": "32", "j_cd": "403", "j_lon": "-73.8854", "j_lat": "40.7487", "pluto_addr": "37-30 81 STREET", "pluto_resu": "31", "_hpdcompla": "2" }, "geometry": { "type": "Point", "coordinates": [ -73.885350697277701, 40.748690233258642 ] } },
{ "type": "Feature", "properties": { "BBL": 4012910056.000000, "j_2007uc": "27", "j_2016uc": "25", "j_cd": "403", "j_lon": "-73.8857", "j_lat": "40.7484", "pluto_addr": "37-43 80 STREET", "pluto_resu": "27", "_hpdcompla": "1" }, "geometry": { "type": "Point", "coordinates": [ -73.885664333760189, 40.748359512529056 ] } },
{ "type": "Feature", "properties": { "BBL": 4014900018.000000, "j_2007uc": "331", "j_2016uc": "259", "j_cd": "404", "j_lon": "-73.886", "j_lat": "40.7463", "pluto_addr": "79-11 41 AVENUE", "pluto_resu": "353", "_hpdcompla": "2" }, "geometry": { "type": "Point", "coordinates": [ -73.886041934909599, 40.746263572437122 ] } },
{ "type": "Feature", "properties": { "BBL": 4014920025.000000, "j_2007uc": "16", "j_2016uc": "17", "j_cd": "404", "j_lon": "-73.884", "j_lat": "40.7465", "pluto_addr": "40-38 82 STREET", "pluto_resu": "14", "_hpdcompla": "3" }, "geometry": { "type": "Point", "coordinates": [ -73.884006222759552, 40.746463366705107 ] } },
{ "type": "Feature", "properties": { "BBL": 4014570001.000000, "j_2007uc": "22", "j_2016uc": "10", "j_cd": "403", "j_lon": "-73.8834", "j_lat": "40.7515", "pluto_addr": "83-12 35 AVENUE", "pluto_resu": "66", "_hpdcompla": "2" }, "geometry": { "type": "Point", "coordinates": [ -73.88339256418746, 40.751519858667173 ] } },
{ "type": "Feature", "properties": { "BBL": 4014850037.000000, "j_2007uc": "72", "j_2016uc": "72", "j_cd": "404", "j_lon": "-73.8907", "j_lat": "40.7461", "pluto_addr": "40-30 75 STREET", "pluto_resu": "74", "_hpdcompla": "1" }, "geometry": { "type": "Point", "coordinates": [ -73.890655147704067, 40.74608266381761 ] } },
{ "type": "Feature", "properties": { "BBL": 4014430040.000000, "j_2007uc": "43", "j_2016uc": "44", "j_cd": "403", "j_lon": "-73.8845", "j_lat": "40.7521", "pluto_addr": "34-57 82 STREET", "pluto_resu": "44", "_hpdcompla": "1" }, "geometry": { "type": "Point", "coordinates": [ -73.884445557490949, 40.752072099910706 ] } },
{ "type": "Feature", "properties": { "BBL": 4014320056.000000, "j_2007uc": "38", "j_2016uc": "38", "j_cd": "403", "j_lon": "-73.8831", "j_lat": "40.7552", "pluto_addr": "33-15 84 STREET", "pluto_resu": "40", "_hpdcompla": "1" }, "geometry": { "type": "Point", "coordinates": [ -73.883122098004165, 40.755243075031743 ] } },
{ "type": "Feature", "properties": { "BBL": 4012490033.000000, "j_2007uc": "74", "j_2016uc": "82", "j_cd": "403", "j_lon": "-73.8902", "j_lat": "40.7535", "pluto_addr": "76-09 34 AVENUE", "pluto_resu": "83", "_hpdcompla": "1" }, "geometry": { "type": "Point", "coordinates": [ -73.890199316865576, 40.75347207543944 ] } },
{ "type": "Feature", "properties": { "BBL": 4014310001.000000, "j_2007uc": "39", "j_2016uc": "39", "j_cd": "403", "j_lon": "-73.8841", "j_lat": "40.7554", "pluto_addr": "33-07 83 STREET", "pluto_resu": "39", "_hpdcompla": "1" }, "geometry": { "type": "Point", "coordinates": [ -73.884100013348032, 40.75539280258004 ] } },
{ "type": "Feature", "properties": { "BBL": 4015540011.000000, "j_2007uc": "52", "j_2016uc": "47", "j_cd": "404", "j_lon": "-73.8768", "j_lat": "40.7465", "pluto_addr": "41-12 ELBERTSON STREET", "pluto_resu": "52", "_hpdcompla": "1" }, "geometry": { "type": "Point", "coordinates": [ -73.876839871023847, 40.746468590192293 ] } },
{ "type": "Feature", "properties": { "BBL": 4015040051.000000, "j_2007uc": "6", "j_2016uc": "6", "j_cd": "404", "j_lon": "-73.8804", "j_lat": "40.7461", "pluto_addr": "85-29 BRITTON AVENUE", "pluto_resu": "6", "_hpdcompla": "1" }, "geometry": { "type": "Point", "coordinates": [ -73.88039951276987, 40.746105964699233 ] } },
{ "type": "Feature", "properties": { "BBL": 4015560006.000000, "j_2007uc": "56", "j_2016uc": "56", "j_cd": "404", "j_lon": "-73.8778", "j_lat": "40.7453", "pluto_addr": "87-42 ELMHURST AVENUE", "pluto_resu": "58", "_hpdcompla": "2" }, "geometry": { "type": "Point", "coordinates": [ -73.87776415091372, 40.745294830454917 ] } },
{ "type": "Feature", "properties": { "BBL": 4015060047.000000, "j_2007uc": "26", "j_2016uc": "21", "j_cd": "404", "j_lon": "-73.8814", "j_lat": "40.7453", "pluto_addr": "40-66 ITHACA STREET", "pluto_resu": "66", "_hpdcompla": "1" }, "geometry": { "type": "Point", "coordinates": [ -73.881439269512498, 40.745310033213485 ] } },
{ "type": "Feature", "properties": { "BBL": 4015110001.000000, "j_2007uc": "234", "j_2016uc": "236", "j_cd": "404", "j_lon": "-73.8778", "j_lat": "40.7477", "pluto_addr": "40-45 ELBERTSON STREET", "pluto_resu": "235", "_hpdcompla": "33" }, "geometry": { "type": "Point", "coordinates": [ -73.877801111819153, 40.747623560199337 ] } },
{ "type": "Feature", "properties": { "BBL": 4014450034.000000, "j_2007uc": "83", "j_2016uc": "84", "j_cd": "403", "j_lon": "-73.8824", "j_lat": "40.7523", "pluto_addr": "84-09 35 AVENUE", "pluto_resu": "84", "_hpdcompla": "2" }, "geometry": { "type": "Point", "coordinates": [ -73.882405084771065, 40.752274703623932 ] } },
{ "type": "Feature", "properties": { "BBL": 4014520006.000000, "j_2007uc": "44", "j_2016uc": "49", "j_cd": "403", "j_lon": "-73.876", "j_lat": "40.7544", "pluto_addr": "91-16 34 AVENUE", "pluto_resu": "48", "_hpdcompla": "3" }, "geometry": { "type": "Point", "coordinates": [ -73.875975553109257, 40.754419831586539 ] } },
{ "type": "Feature", "properties": { "BBL": 4030140032.000000, "j_2007uc": "69", "j_2016uc": "69", "j_cd": "405", "j_lon": "-73.8682", "j_lat": "40.7218", "pluto_addr": "84-31 FLEET COURT", "pluto_resu": "69", "_hpdcompla": "1" }, "geometry": { "type": "Point", "coordinates": [ -73.868243785583047, 40.721811233852165 ] } },
{ "type": "Feature", "properties": { "BBL": 4031110024.000000, "j_2007uc": "98", "j_2016uc": "97", "j_cd": "406", "j_lon": "-73.8663", "j_lat": "40.7247", "pluto_addr": "88-11 63 DRIVE", "pluto_resu": "105", "_hpdcompla": "1" }, "geometry": { "type": "Point", "coordinates": [ -73.866254452893969, 40.724698495043285 ] } },
{ "type": "Feature", "properties": { "BBL": 4031050028.000000, "j_2007uc": "98", "j_2016uc": "101", "j_cd": "406", "j_lon": "-73.8703", "j_lat": "40.7275", "pluto_addr": "61-61 WOODHAVEN BOULEVARD", "pluto_resu": "101", "_hpdcompla": "1" }, "geometry": { "type": "Point", "coordinates": [ -73.87026631012931, 40.727489064911097 ] } },
{ "type": "Feature", "properties": { "BBL": 4029740085.000000, "j_2007uc": "408", "j_2016uc": "405", "j_cd": "405", "j_lon": "-73.8709", "j_lat": "40.7257", "pluto_addr": "62-42 WOODHAVEN BOULEVARD", "pluto_resu": "408", "_hpdcompla": "1" }, "geometry": { "type": "Point", "coordinates": [ -73.870933312539492, 40.725683674465493 ] } },
{ "type": "Feature", "properties": { "BBL": 4028860023.000000, "j_2007uc": "9", "j_2016uc": null, "j_cd": "405", "j_lon": "-73.874", "j_lat": "40.7296", "pluto_addr": "85-25 60 ROAD", "pluto_resu": "9", "_hpdcompla": "6" }, "geometry": { "type": "Point", "coordinates": [ -73.873990629422735, 40.729642119363454 ] } },
{ "type": "Feature", "properties": { "BBL": 4030760022.000000, "j_2007uc": "8", "j_2016uc": "8", "j_cd": "406", "j_lon": "-73.8677", "j_lat": "40.731", "pluto_addr": "61-40 SAUNDERS STREET", "pluto_resu": "73", "_hpdcompla": "1" }, "geometry": { "type": "Point", "coordinates": [ -73.867679359300851, 40.73100942248449 ] } },
{ "type": "Feature", "properties": { "BBL": 4020900047.000000, "j_2007uc": "108", "j_2016uc": "109", "j_cd": "406", "j_lon": "-73.8598", "j_lat": "40.7301", "pluto_addr": "97-25 64 AVENUE", "pluto_resu": "112", "_hpdcompla": "1" }, "geometry": { "type": "Point", "coordinates": [ -73.859790906409586, 40.730143664840497 ] } },
{ "type": "Feature", "properties": { "BBL": 4030940005.000000, "j_2007uc": "94", "j_2016uc": "91", "j_cd": "406", "j_lon": "-73.8652", "j_lat": "40.728", "pluto_addr": "63-19 AUSTIN STREET", "pluto_resu": "95", "_hpdcompla": "3" }, "geometry": { "type": "Point", "coordinates": [ -73.865233845648518, 40.728038354544694 ] } },
{ "type": "Feature", "properties": { "BBL": 4030850036.000000, "j_2007uc": "1", "j_2016uc": null, "j_cd": "406", "j_lon": "-73.8591", "j_lat": "40.7275", "pluto_addr": "96-11 65 ROAD", "pluto_resu": "88", "_hpdcompla": "2" }, "geometry": { "type": "Point", "coordinates": [ -73.859069213665862, 40.727524011374896 ] } },
{ "type": "Feature", "properties": { "BBL": 4021000021.000000, "j_2007uc": "6", "j_2016uc": "3", "j_cd": "406", "j_lon": "-73.8574", "j_lat": "40.731", "pluto_addr": "98-33 64 AVENUE", "pluto_resu": "144", "_hpdcompla": "1" }, "geometry": { "type": "Point", "coordinates": [ -73.857388610763095, 40.731004851716087 ] } },
{ "type": "Feature", "properties": { "BBL": 4031040070.000000, "j_2007uc": "17", "j_2016uc": null, "j_cd": "406", "j_lon": "-73.8607", "j_lat": "40.7263", "pluto_addr": "64-68 AUSTIN STREET", "pluto_resu": "16", "_hpdcompla": "6" }, "geometry": { "type": "Point", "coordinates": [ -73.860672791117608, 40.726260665729995 ] } },
{ "type": "Feature", "properties": { "BBL": 4032050001.000000, "j_2007uc": "9", "j_2016uc": "5", "j_cd": "406", "j_lon": "-73.8519", "j_lat": "40.7212", "pluto_addr": "68-04 BURNS STREET", "pluto_resu": "15", "_hpdcompla": "1" }, "geometry": { "type": "Point", "coordinates": [ -73.851870592221843, 40.721186764354513 ] } },
{ "type": "Feature", "properties": { "BBL": 4031710001.000000, "j_2007uc": "56", "j_2016uc": "41", "j_cd": "406", "j_lon": "-73.8526", "j_lat": "40.7253", "pluto_addr": "101-01 BOOTH STREET", "pluto_resu": "62", "_hpdcompla": "4" }, "geometry": { "type": "Point", "coordinates": [ -73.85257779467257, 40.725327910979573 ] } },
{ "type": "Feature", "properties": { "BBL": 4032050008.000000, "j_2007uc": "1", "j_2016uc": null, "j_cd": "406", "j_lon": "-73.8514", "j_lat": "40.721", "pluto_addr": "68-20 BURNS STREET", "pluto_resu": "24", "_hpdcompla": "1" }, "geometry": { "type": "Point", "coordinates": [ -73.85137950855956, 40.721006946166909 ] } },
{ "type": "Feature", "properties": { "BBL": 4031640038.000000, "j_2007uc": "16", "j_2016uc": "11", "j_cd": "406", "j_lon": "-73.8557", "j_lat": "40.7215", "pluto_addr": "67-25 DARTMOUTH STREET", "pluto_resu": "98", "_hpdcompla": "1" }, "geometry": { "type": "Point", "coordinates": [ -73.855702315845178, 40.721473618662692 ] } },
{ "type": "Feature", "properties": { "BBL": 4021040001.000000, "j_2007uc": "199", "j_2016uc": "198", "j_cd": "406", "j_lon": "-73.8558", "j_lat": "40.7284", "pluto_addr": "98-41 QUEENS BOULEVARD", "pluto_resu": "198", "_hpdcompla": "2" }, "geometry": { "type": "Point", "coordinates": [ -73.855804843512075, 40.728439494599236 ] } },
{ "type": "Feature", "properties": { "BBL": 4021340032.000000, "j_2007uc": "35", "j_2016uc": null, "j_cd": "406", "j_lon": "-73.8496", "j_lat": "40.728", "pluto_addr": "67-12 YELLOWSTONE BLVD", "pluto_resu": "135", "_hpdcompla": "1" }, "geometry": { "type": "Point", "coordinates": [ -73.849631214337165, 40.72797825572804 ] } },
{ "type": "Feature", "properties": { "BBL": 4021370027.000000, "j_2007uc": "140", "j_2016uc": "143", "j_cd": "406", "j_lon": "-73.8488", "j_lat": "40.7259", "pluto_addr": "68-12 YELLOWSTONE BLVD", "pluto_resu": "147", "_hpdcompla": "1" }, "geometry": { "type": "Point", "coordinates": [ -73.848751604284899, 40.725858782485915 ] } },
{ "type": "Feature", "properties": { "BBL": 4021720001.000000, "j_2007uc": "24", "j_2016uc": "15", "j_cd": "406", "j_lon": "-73.8484", "j_lat": "40.7314", "pluto_addr": "65-11 108 STREET", "pluto_resu": "120", "_hpdcompla": "3" }, "geometry": { "type": "Point", "coordinates": [ -73.848387030933239, 40.731390563737357 ] } },
{ "type": "Feature", "properties": { "BBL": 4021170001.000000, "j_2007uc": "273", "j_2016uc": "300", "j_cd": "406", "j_lon": "-73.8533", "j_lat": "40.7284", "pluto_addr": "99-19 66 AVENUE", "pluto_resu": "310", "_hpdcompla": "1" }, "geometry": { "type": "Point", "coordinates": [ -73.853309734936417, 40.72838566445877 ] } },
{ "type": "Feature", "properties": { "BBL": 4021150001.000000, "j_2007uc": "130", "j_2016uc": "127", "j_cd": "406", "j_lon": "-73.8549", "j_lat": "40.7294", "pluto_addr": "65-09 99 STREET", "pluto_resu": "132", "_hpdcompla": "1" }, "geometry": { "type": "Point", "coordinates": [ -73.854930207636713, 40.729438786268425 ] } },
{ "type": "Feature", "properties": { "BBL": 4021320045.000000, "j_2007uc": "139", "j_2016uc": "104", "j_cd": "406", "j_lon": "-73.8504", "j_lat": "40.7291", "pluto_addr": "66-25 103 STREET", "pluto_resu": "148", "_hpdcompla": "1" }, "geometry": { "type": "Point", "coordinates": [ -73.850680746867141, 40.729230709861262 ] } },
{ "type": "Feature", "properties": { "BBL": 4022250001.000000, "j_2007uc": "43", "j_2016uc": "28", "j_cd": "406", "j_lon": "-73.8417", "j_lat": "40.721", "pluto_addr": "109-05 72 AVENUE", "pluto_resu": "67", "_hpdcompla": "2" }, "geometry": { "type": "Point", "coordinates": [ -73.841702044572273, 40.720977536629462 ] } },
{ "type": "Feature", "properties": { "BBL": 4022220001.000000, "j_2007uc": "51", "j_2016uc": "45", "j_cd": "406", "j_lon": "-73.844", "j_lat": "40.7227", "pluto_addr": "70-11 108 STREET", "pluto_resu": "75", "_hpdcompla": "2" }, "geometry": { "type": "Point", "coordinates": [ -73.844011491067391, 40.722726184663571 ] } },
{ "type": "Feature", "properties": { "BBL": 4022247501.000000, "j_2007uc": "4", "j_2016uc": "1", "j_cd": "406", "j_lon": "-73.8419", "j_lat": "40.7217", "pluto_addr": "109-33 71 ROAD", "pluto_resu": "73", "_hpdcompla": "4" }, "geometry": { "type": "Point", "coordinates": [ -73.841908822688168, 40.721676315518501 ] } },
{ "type": "Feature", "properties": { "BBL": 4018450010.000000, "j_2007uc": "158", "j_2016uc": "161", "j_cd": "404", "j_lon": "-73.873", "j_lat": "40.7352", "pluto_addr": "89-50 56 AVENUE", "pluto_resu": "165", "_hpdcompla": "1" }, "geometry": { "type": "Point", "coordinates": [ -73.872956075390235, 40.735161943440566 ] } },
{ "type": "Feature", "properties": { "BBL": 4019180085.000000, "j_2007uc": "233", "j_2016uc": "228", "j_cd": "404", "j_lon": "-73.8602", "j_lat": "40.7366", "pluto_addr": "98-23 HOR HARDING EP SR N", "pluto_resu": "233", "_hpdcompla": "1" }, "geometry": { "type": "Point", "coordinates": [ -73.860231826894832, 40.736616904442492 ] } },
{ "type": "Feature", "properties": { "BBL": 4019180108.000000, "j_2007uc": "236", "j_2016uc": "238", "j_cd": "404", "j_lon": "-73.8625", "j_lat": "40.7353", "pluto_addr": "97-05 HOR HARDING EP SR N", "pluto_resu": "243", "_hpdcompla": "2" }, "geometry": { "type": "Point", "coordinates": [ -73.862542199311321, 40.735280810169677 ] } },
{ "type": "Feature", "properties": { "BBL": 4019180070.000000, "j_2007uc": "234", "j_2016uc": "228", "j_cd": "404", "j_lon": "-73.8617", "j_lat": "40.7375", "pluto_addr": "98-30 57 AVENUE", "pluto_resu": "237", "_hpdcompla": "4" }, "geometry": { "type": "Point", "coordinates": [ -73.861662464053936, 40.73746947574638 ] } },
{ "type": "Feature", "properties": { "BBL": 4019180097.000000, "j_2007uc": "226", "j_2016uc": "225", "j_cd": "404", "j_lon": "-73.8608", "j_lat": "40.7358", "pluto_addr": "98-15 HOR HARDING EP SR N", "pluto_resu": "227", "_hpdcompla": "3" }, "geometry": { "type": "Point", "coordinates": [ -73.860797483664555, 40.735801839558896 ] } },
{ "type": "Feature", "properties": { "BBL": 4019180110.000000, "j_2007uc": "236", "j_2016uc": "235", "j_cd": "404", "j_lon": "-73.8627", "j_lat": "40.7359", "pluto_addr": "97-07 HOR HARDING EP SR N", "pluto_resu": "238", "_hpdcompla": "1" }, "geometry": { "type": "Point", "coordinates": [ -73.86273708556061, 40.735890891721262 ] } },
{ "type": "Feature", "properties": { "BBL": 4019180045.000000, "j_2007uc": "219", "j_2016uc": "213", "j_cd": "404", "j_lon": "-73.8649", "j_lat": "40.7359", "pluto_addr": "96-04 57 AVENUE", "pluto_resu": "219", "_hpdcompla": "4" }, "geometry": { "type": "Point", "coordinates": [ -73.864851604196375, 40.735912582359227 ] } },
{ "type": "Feature", "properties": { "BBL": 4019180080.000000, "j_2007uc": "234", "j_2016uc": "226", "j_cd": "404", "j_lon": "-73.8606", "j_lat": "40.7372", "pluto_addr": "98-38 57 AVENUE", "pluto_resu": "224", "_hpdcompla": "3" }, "geometry": { "type": "Point", "coordinates": [ -73.860552137442468, 40.737182427476235 ] } },
{ "type": "Feature", "properties": { "BBL": 4020860040.000000, "j_2007uc": "411", "j_2016uc": "284", "j_cd": "406", "j_lon": "-73.8579", "j_lat": "40.733", "pluto_addr": "62-60 99 STREET", "pluto_resu": "417", "_hpdcompla": "2" }, "geometry": { "type": "Point", "coordinates": [ -73.857946078628274, 40.732967404327361 ] } },
{ "type": "Feature", "properties": { "BBL": 4019180072.000000, "j_2007uc": "235", "j_2016uc": "232", "j_cd": "404", "j_lon": "-73.8614", "j_lat": "40.7369", "pluto_addr": "98-32 57 AVENUE", "pluto_resu": "232", "_hpdcompla": "2" }, "geometry": { "type": "Point", "coordinates": [ -73.861381082755173, 40.736932947385057 ] } },
{ "type": "Feature", "properties": { "BBL": 4019180052.000000, "j_2007uc": "225", "j_2016uc": "218", "j_cd": "404", "j_lon": "-73.8643", "j_lat": "40.7367", "pluto_addr": "96-10 57 AVENUE", "pluto_resu": "225", "_hpdcompla": "2" }, "geometry": { "type": "Point", "coordinates": [ -73.864247226906599, 40.736691842249201 ] } },
{ "type": "Feature", "properties": { "BBL": 4019180050.000000, "j_2007uc": "220", "j_2016uc": "222", "j_cd": "404", "j_lon": "-73.8651", "j_lat": "40.7365", "pluto_addr": "96-02 57 AVENUE", "pluto_resu": "222", "_hpdcompla": "2" }, "geometry": { "type": "Point", "coordinates": [ -73.865074710951035, 40.736461089958766 ] } },
{ "type": "Feature", "properties": { "BBL": 4019180067.000000, "j_2007uc": "234", "j_2016uc": "231", "j_cd": "404", "j_lon": "-73.8623", "j_lat": "40.7367", "pluto_addr": "97-28 57 AVENUE", "pluto_resu": "232", "_hpdcompla": "4" }, "geometry": { "type": "Point", "coordinates": [ -73.862262684875517, 40.736672183885908 ] } },
{ "type": "Feature", "properties": { "BBL": 4019180095.000000, "j_2007uc": "232", "j_2016uc": "228", "j_cd": "404", "j_lon": "-73.8611", "j_lat": "40.7364", "pluto_addr": "98-17 HOR HARDING EP SR N", "pluto_resu": "232", "_hpdcompla": "3" }, "geometry": { "type": "Point", "coordinates": [ -73.861083022853748, 40.736358535135089 ] } },
{ "type": "Feature", "properties": { "BBL": 4019370001.000000, "j_2007uc": "296", "j_2016uc": "296", "j_cd": "404", "j_lon": "-73.8591", "j_lat": "40.7395", "pluto_addr": "54-09 100 STREET", "pluto_resu": "294", "_hpdcompla": "2" }, "geometry": { "type": "Point", "coordinates": [ -73.859137366925452, 40.739484019094718 ] } },
{ "type": "Feature", "properties": { "BBL": 4019080001.000000, "j_2007uc": "69", "j_2016uc": "54", "j_cd": "404", "j_lon": "-73.861", "j_lat": "40.7386", "pluto_addr": "55-25 98 PLACE", "pluto_resu": "207", "_hpdcompla": "1" }, "geometry": { "type": "Point", "coordinates": [ -73.86103667565213, 40.738579487038166 ] } },
{ "type": "Feature", "properties": { "BBL": 4015640043.000000, "j_2007uc": "19", "j_2016uc": "19", "j_cd": "404", "j_lon": "-73.8725", "j_lat": "40.7466", "pluto_addr": "41-55 CASE STREET", "pluto_resu": "20", "_hpdcompla": "1" }, "geometry": { "type": "Point", "coordinates": [ -73.872543758478074, 40.746577392673274 ] } },
{ "type": "Feature", "properties": { "BBL": 4014830010.000000, "j_2007uc": "16", "j_2016uc": "17", "j_cd": "403", "j_lon": "-73.8718", "j_lat": "40.7509", "pluto_addr": "95-08 37 AVENUE", "pluto_resu": "17", "_hpdcompla": "4" }, "geometry": { "type": "Point", "coordinates": [ -73.871840538086218, 40.750937065303795 ] } },
{ "type": "Feature", "properties": { "BBL": 4015640058.000000, "j_2007uc": "109", "j_2016uc": "100", "j_cd": "404", "j_lon": "-73.8735", "j_lat": "40.7471", "pluto_addr": "41-25 CASE STREET", "pluto_resu": "109", "_hpdcompla": "1" }, "geometry": { "type": "Point", "coordinates": [ -73.873512466861428, 40.747087512478238 ] } },
{ "type": "Feature", "properties": { "BBL": 4015970048.000000, "j_2007uc": "16", "j_2016uc": "16", "j_cd": "404", "j_lon": "-73.87", "j_lat": "40.7468", "pluto_addr": "41-05 95 STREET", "pluto_resu": "16", "_hpdcompla": "1" }, "geometry": { "type": "Point", "coordinates": [ -73.869982240494195, 40.746834131400071 ] } },
{ "type": "Feature", "properties": { "BBL": 4017590023.000000, "j_2007uc": "63", "j_2016uc": "65", "j_cd": "403", "j_lon": "-73.8694", "j_lat": "40.7504", "pluto_addr": "37-50 97 STREET", "pluto_resu": "66", "_hpdcompla": "4" }, "geometry": { "type": "Point", "coordinates": [ -73.869394916924804, 40.750376908984066 ] } },
{ "type": "Feature", "properties": { "BBL": 4014250033.000000, "j_2007uc": "27", "j_2016uc": null, "j_cd": "403", "j_lon": "-73.8725", "j_lat": "40.7572", "pluto_addr": "95-13 NORTHERN BOULEVARD", "pluto_resu": "28", "_hpdcompla": "1" }, "geometry": { "type": "Point", "coordinates": [ -73.872501650731721, 40.757190996846589 ] } },
{ "type": "Feature", "properties": { "BBL": 4017100073.000000, "j_2007uc": null, "j_2016uc": null, "j_cd": "403", "j_lon": "-73.8727", "j_lat": "40.7558", "pluto_addr": "33-37 JUNCTION BOULEVARD", "pluto_resu": "8", "_hpdcompla": "1" }, "geometry": { "type": "Point", "coordinates": [ -73.872743782765639, 40.755794481974895 ] } },
{ "type": "Feature", "properties": { "BBL": 4014690058.000000, "j_2007uc": "39", "j_2016uc": "40", "j_cd": "403", "j_lon": "-73.8721", "j_lat": "40.7521", "pluto_addr": "35-35 95 STREET", "pluto_resu": "40", "_hpdcompla": "2" }, "geometry": { "type": "Point", "coordinates": [ -73.87207257155103, 40.752112092265072 ] } },
{ "type": "Feature", "properties": { "BBL": 4014550055.000000, "j_2007uc": "57", "j_2016uc": "58", "j_cd": "403", "j_lon": "-73.8733", "j_lat": "40.7535", "pluto_addr": "94-06 34 ROAD", "pluto_resu": "59", "_hpdcompla": "1" }, "geometry": { "type": "Point", "coordinates": [ -73.873328228406379, 40.753520082046954 ] } },
{ "type": "Feature", "properties": { "BBL": 4014550065.000000, "j_2007uc": "42", "j_2016uc": "42", "j_cd": "403", "j_lon": "-73.8726", "j_lat": "40.7537", "pluto_addr": "94-26 34 ROAD", "pluto_resu": "43", "_hpdcompla": "2" }, "geometry": { "type": "Point", "coordinates": [ -73.872629579467826, 40.753669717163625 ] } },
{ "type": "Feature", "properties": { "BBL": 4014550041.000000, "j_2007uc": "100", "j_2016uc": "102", "j_cd": "403", "j_lon": "-73.8733", "j_lat": "40.7543", "pluto_addr": "34-15 94 STREET", "pluto_resu": "104", "_hpdcompla": "6" }, "geometry": { "type": "Point", "coordinates": [ -73.873272138345968, 40.754346026957514 ] } },
{ "type": "Feature", "properties": { "BBL": 4014550001.000000, "j_2007uc": "58", "j_2016uc": "58", "j_cd": "403", "j_lon": "-73.8735", "j_lat": "40.7547", "pluto_addr": "94-06 34 AVENUE", "pluto_resu": "58", "_hpdcompla": "2" }, "geometry": { "type": "Point", "coordinates": [ -73.873519792213244, 40.754679234564797 ] } },
{ "type": "Feature", "properties": { "BBL": 4017700081.000000, "j_2007uc": "17", "j_2016uc": "17", "j_cd": "403", "j_lon": "-73.8624", "j_lat": "40.7507", "pluto_addr": "103-18 39 AVENUE", "pluto_resu": "18", "_hpdcompla": "2" }, "geometry": { "type": "Point", "coordinates": [ -73.862444707296476, 40.750719706900774 ] } },
{ "type": "Feature", "properties": { "BBL": 4019740043.000000, "j_2007uc": "5", "j_2016uc": "3", "j_cd": "404", "j_lon": "-73.8637", "j_lat": "40.7494", "pluto_addr": "40-15 102 STREET", "pluto_resu": "6", "_hpdcompla": "6" }, "geometry": { "type": "Point", "coordinates": [ -73.863682312992367, 40.749352403612079 ] } },
{ "type": "Feature", "properties": { "BBL": 4017680061.000000, "j_2007uc": "13", "j_2016uc": "13", "j_cd": "403", "j_lon": "-73.864", "j_lat": "40.7506", "pluto_addr": "37-91 102 STREET", "pluto_resu": "15", "_hpdcompla": "2" }, "geometry": { "type": "Point", "coordinates": [ -73.863955739887004, 40.750630085271126 ] } },
{ "type": "Feature", "properties": { "BBL": 4019860001.000000, "j_2007uc": "38", "j_2016uc": "28", "j_cd": "404", "j_lon": "-73.8603", "j_lat": "40.7485", "pluto_addr": "104-18 42 AVENUE", "pluto_resu": "39", "_hpdcompla": "1" }, "geometry": { "type": "Point", "coordinates": [ -73.860273785508298, 40.74846592146833 ] } },
{ "type": "Feature", "properties": { "BBL": 4017790006.000000, "j_2007uc": "30", "j_2016uc": "30", "j_cd": "403", "j_lon": "-73.8585", "j_lat": "40.7524", "pluto_addr": "108-28 38 AVENUE", "pluto_resu": "30", "_hpdcompla": "1" }, "geometry": { "type": "Point", "coordinates": [ -73.858449189463627, 40.752387403161471 ] } },
{ "type": "Feature", "properties": { "BBL": 4021210051.000000, "j_2007uc": "123", "j_2016uc": "119", "j_cd": "406", "j_lon": "-73.8543", "j_lat": "40.7357", "pluto_addr": "102-45 62 ROAD", "pluto_resu": "122", "_hpdcompla": "5" }, "geometry": { "type": "Point", "coordinates": [ -73.854267167203162, 40.735676740493723 ] } },
{ "type": "Feature", "properties": { "BBL": 4021660001.000000, "j_2007uc": "17", "j_2016uc": "7", "j_cd": "406", "j_lon": "-73.8505", "j_lat": "40.7354", "pluto_addr": "62-59 108 STREET", "pluto_resu": "114", "_hpdcompla": "1" }, "geometry": { "type": "Point", "coordinates": [ -73.850453505325603, 40.735426486541741 ] } },
{ "type": "Feature", "properties": { "BBL": 4021117501.000000, "j_2007uc": null, "j_2016uc": "126", "j_cd": "406", "j_lon": "-73.8555", "j_lat": "40.7323", "pluto_addr": "99-40 63 DRIVE", "pluto_resu": "536", "_hpdcompla": "1" }, "geometry": { "type": "Point", "coordinates": [ -73.855512155107789, 40.732314834935664 ] } },
{ "type": "Feature", "properties": { "BBL": 4021660039.000000, "j_2007uc": "22", "j_2016uc": "16", "j_cd": "406", "j_lon": "-73.8491", "j_lat": "40.7357", "pluto_addr": "108-49 63 AVENUE", "pluto_resu": "100", "_hpdcompla": "1" }, "geometry": { "type": "Point", "coordinates": [ -73.849115112589772, 40.735684363439567 ] } },
{ "type": "Feature", "properties": { "BBL": 4021440015.000000, "j_2007uc": "127", "j_2016uc": "122", "j_cd": "406", "j_lon": "-73.8519", "j_lat": "40.7359", "pluto_addr": "105-40 62 ROAD", "pluto_resu": "128", "_hpdcompla": "1" }, "geometry": { "type": "Point", "coordinates": [ -73.851898065135927, 40.735918437661496 ] } },
{ "type": "Feature", "properties": { "BBL": 4021820101.000000, "j_2007uc": "6", "j_2016uc": "6", "j_cd": "406", "j_lon": "-73.8475", "j_lat": "40.7345", "pluto_addr": "63-45 110 STREET", "pluto_resu": "8", "_hpdcompla": "1" }, "geometry": { "type": "Point", "coordinates": [ -73.847496596469384, 40.734497721700301 ] } },
{ "type": "Feature", "properties": { "BBL": 4017860017.000000, "j_2007uc": "69", "j_2016uc": "70", "j_cd": "403", "j_lon": "-73.8533", "j_lat": "40.753", "pluto_addr": "39-06 114 STREET", "pluto_resu": "70", "_hpdcompla": "4" }, "geometry": { "type": "Point", "coordinates": [ -73.853294487760721, 40.75300821615496 ] } },
{ "type": "Feature", "properties": { "BBL": 4008030043.000000, "j_2007uc": "15", "j_2016uc": null, "j_cd": "401", "j_lon": "-73.9086", "j_lat": "40.7711", "pluto_addr": "38-18 23 AVENUE", "pluto_resu": "18", "_hpdcompla": "1" }, "geometry": { "type": "Point", "coordinates": [ -73.908609798040786, 40.771120567669058 ] } },
{ "type": "Feature", "properties": { "BBL": 4008307501.000000, "j_2007uc": "122", "j_2016uc": "82", "j_cd": "401", "j_lon": "-73.9081", "j_lat": "40.776", "pluto_addr": "21-05 33 STREET", "pluto_resu": "617", "_hpdcompla": "2" }, "geometry": { "type": "Point", "coordinates": [ -73.908143041019457, 40.776029254975057 ] } },
{ "type": "Feature", "properties": { "BBL": 4007960021.000000, "j_2007uc": "16", "j_2016uc": "16", "j_cd": "401", "j_lon": "-73.9037", "j_lat": "40.7733", "pluto_addr": "21-31 41 STREET", "pluto_resu": "16", "_hpdcompla": "1" }, "geometry": { "type": "Point", "coordinates": [ -73.903683956501823, 40.773312583365602 ] } },
{ "type": "Feature", "properties": { "BBL": 4013680025.000000, "j_2007uc": "6", "j_2016uc": "6", "j_cd": "403", "j_lon": "-73.8746", "j_lat": "40.7633", "pluto_addr": "25-36 95 STREET", "pluto_resu": "6", "_hpdcompla": "4" }, "geometry": { "type": "Point", "coordinates": [ -73.874567998352134, 40.763264601945345 ] } },
{ "type": "Feature", "properties": { "BBL": 4013760032.000000, "j_2007uc": "15", "j_2016uc": "15", "j_cd": "403", "j_lon": "-73.8725", "j_lat": "40.7611", "pluto_addr": "26-49 96 STREET", "pluto_resu": "84", "_hpdcompla": "1" }, "geometry": { "type": "Point", "coordinates": [ -73.872538491630635, 40.761116323809148 ] } },
{ "type": "Feature", "properties": { "BBL": 4016890029.000000, "j_2007uc": null, "j_2016uc": "6", "j_cd": "403", "j_lon": "-73.8664", "j_lat": "40.7602", "pluto_addr": "31-42 103 STREET", "pluto_resu": "6", "_hpdcompla": "4" }, "geometry": { "type": "Point", "coordinates": [ -73.866417165836822, 40.760212697654666 ] } },
{ "type": "Feature", "properties": { "BBL": 4016990063.000000, "j_2007uc": "6", "j_2016uc": null, "j_cd": "403", "j_lon": "-73.8646", "j_lat": "40.7591", "pluto_addr": "32-17 104 STREET", "pluto_resu": "6", "_hpdcompla": "1" }, "geometry": { "type": "Point", "coordinates": [ -73.864602087841845, 40.759087130764925 ] } },
{ "type": "Feature", "properties": { "BBL": 4040220049.000000, "j_2007uc": null, "j_2016uc": null, "j_cd": "407", "j_lon": "-73.8522", "j_lat": "40.7876", "pluto_addr": "10-35 115 STREET", "pluto_resu": "6", "_hpdcompla": "2" }, "geometry": { "type": "Point", "coordinates": [ -73.852150613395324, 40.787621943375434 ] } },
{ "type": "Feature", "properties": { "BBL": 4033340299.000000, "j_2007uc": "52", "j_2016uc": "31", "j_cd": "406", "j_lon": "-73.8345", "j_lat": "40.7135", "pluto_addr": "77-54 AUSTIN STREET", "pluto_resu": "60", "_hpdcompla": "1" }, "geometry": { "type": "Point", "coordinates": [ -73.834534245969181, 40.713456656592037 ] } },
{ "type": "Feature", "properties": { "BBL": 4033410016.000000, "j_2007uc": "38", "j_2016uc": "36", "j_cd": "406", "j_lon": "-73.8355", "j_lat": "40.7164", "pluto_addr": "111-50 76 ROAD", "pluto_resu": "66", "_hpdcompla": "1" }, "geometry": { "type": "Point", "coordinates": [ -73.835471172375577, 40.716445386859078 ] } },
{ "type": "Feature", "properties": { "BBL": 4033350008.000000, "j_2007uc": "113", "j_2016uc": "110", "j_cd": "409", "j_lon": "-73.8344", "j_lat": "40.7121", "pluto_addr": "80-15 GRENFELL STREET", "pluto_resu": "128", "_hpdcompla": "1" }, "geometry": { "type": "Point", "coordinates": [ -73.834349932875853, 40.712088429377921 ] } },
{ "type": "Feature", "properties": { "BBL": 4033300033.000000, "j_2007uc": "3", "j_2016uc": "1", "j_cd": "409", "j_lon": "-73.8316", "j_lat": "40.7075", "pluto_addr": "83-36 BEVERLY ROAD", "pluto_resu": "40", "_hpdcompla": "1" }, "geometry": { "type": "Point", "coordinates": [ -73.831639876774005, 40.707485897714093 ] } },
{ "type": "Feature", "properties": { "BBL": 4096680005.000000, "j_2007uc": "55", "j_2016uc": "50", "j_cd": "408", "j_lon": "-73.8221", "j_lat": "40.7143", "pluto_addr": "135-16 82 AVENUE", "pluto_resu": "64", "_hpdcompla": "2" }, "geometry": { "type": "Point", "coordinates": [ -73.822094040586862, 40.714318655692132 ] } },
{ "type": "Feature", "properties": { "BBL": 4092460305.000000, "j_2007uc": "108", "j_2016uc": "11", "j_cd": "409", "j_lon": "-73.8274", "j_lat": "40.7077", "pluto_addr": "124-16 84 ROAD", "pluto_resu": "72", "_hpdcompla": "1" }, "geometry": { "type": "Point", "coordinates": [ -73.827442812460234, 40.707733793838557 ] } },
{ "type": "Feature", "properties": { "BBL": 4033550106.000000, "j_2007uc": "4", "j_2016uc": "1", "j_cd": "409", "j_lon": "-73.8289", "j_lat": "40.7094", "pluto_addr": "83-00 LEFFERTS BOULEVARD", "pluto_resu": "76", "_hpdcompla": "1" }, "geometry": { "type": "Point", "coordinates": [ -73.82890852653658, 40.709419140757319 ] } },
{ "type": "Feature", "properties": { "BBL": 4033580040.000000, "j_2007uc": "28", "j_2016uc": "33", "j_cd": "409", "j_lon": "-73.8289", "j_lat": "40.7126", "pluto_addr": "45 KEW GARDENS ROAD", "pluto_resu": "96", "_hpdcompla": "1" }, "geometry": { "type": "Point", "coordinates": [ -73.828866967465473, 40.712563675015282 ] } },
{ "type": "Feature", "properties": { "BBL": 4033550140.000000, "j_2007uc": "43", "j_2016uc": "43", "j_cd": "409", "j_lon": "-73.828", "j_lat": "40.7082", "pluto_addr": "83-55 AUSTIN STREET", "pluto_resu": "43", "_hpdcompla": "2" }, "geometry": { "type": "Point", "coordinates": [ -73.828025574101275, 40.708197090565299 ] } },
{ "type": "Feature", "properties": { "BBL": 4022650079.000000, "j_2007uc": "91", "j_2016uc": "85", "j_cd": "406", "j_lon": "-73.8355", "j_lat": "40.7193", "pluto_addr": "75-05 113 STREET", "pluto_resu": "92", "_hpdcompla": "2" }, "geometry": { "type": "Point", "coordinates": [ -73.835467291283507, 40.719298079445757 ] } },
{ "type": "Feature", "properties": { "BBL": 4065740002.000000, "j_2007uc": "19", "j_2016uc": null, "j_cd": "408", "j_lon": "-73.8288", "j_lat": "40.7278", "pluto_addr": "69-51 136 STREET", "pluto_resu": "24", "_hpdcompla": "1" }, "geometry": { "type": "Point", "coordinates": [ -73.828833015027016, 40.727810283884864 ] } },
{ "type": "Feature", "properties": { "BBL": 4097190002.000000, "j_2007uc": "265", "j_2016uc": "286", "j_cd": "408", "j_lon": "-73.8178", "j_lat": "40.7129", "pluto_addr": "141-10 82 DRIVE", "pluto_resu": "291", "_hpdcompla": "1" }, "geometry": { "type": "Point", "coordinates": [ -73.817840339705725, 40.712944279109422 ] } },
{ "type": "Feature", "properties": { "BBL": 4097120102.000000, "j_2007uc": "251", "j_2016uc": "252", "j_cd": "408", "j_lon": "-73.8145", "j_lat": "40.7099", "pluto_addr": "141-35 85 ROAD", "pluto_resu": "252", "_hpdcompla": "2" }, "geometry": { "type": "Point", "coordinates": [ -73.814467331702218, 40.709942982816926 ] } },
{ "type": "Feature", "properties": { "BBL": 4097120161.000000, "j_2007uc": "89", "j_2016uc": "90", "j_cd": "408", "j_lon": "-73.8147", "j_lat": "40.7106", "pluto_addr": "142-02 84 DRIVE", "pluto_resu": "90", "_hpdcompla": "7" }, "geometry": { "type": "Point", "coordinates": [ -73.814739705633428, 40.710625682847066 ] } },
{ "type": "Feature", "properties": { "BBL": 4097110075.000000, "j_2007uc": "115", "j_2016uc": "115", "j_cd": "408", "j_lon": "-73.8139", "j_lat": "40.7094", "pluto_addr": "139-79 85 DRIVE", "pluto_resu": "122", "_hpdcompla": "4" }, "geometry": { "type": "Point", "coordinates": [ -73.813862694551219, 40.709362057364636 ] } },
{ "type": "Feature", "properties": { "BBL": 4097100037.000000, "j_2007uc": "125", "j_2016uc": "130", "j_cd": "408", "j_lon": "-73.8142", "j_lat": "40.7087", "pluto_addr": "139-60 85 DRIVE", "pluto_resu": "130", "_hpdcompla": "2" }, "geometry": { "type": "Point", "coordinates": [ -73.814178846367881, 40.708728332525524 ] } },
{ "type": "Feature", "properties": { "BBL": 4096670015.000000, "j_2007uc": "74", "j_2016uc": "45", "j_cd": "408", "j_lon": "-73.8215", "j_lat": "40.7135", "pluto_addr": "135-26 HOOVER AVENUE", "pluto_resu": "84", "_hpdcompla": "3" }, "geometry": { "type": "Point", "coordinates": [ -73.821538799041107, 40.713524614820351 ] } },
{ "type": "Feature", "properties": { "BBL": 4097020067.000000, "j_2007uc": "24", "j_2016uc": "23", "j_cd": "408", "j_lon": "-73.8101", "j_lat": "40.7059", "pluto_addr": "146-17 HILLSIDE AVENUE", "pluto_resu": "24", "_hpdcompla": "4" }, "geometry": { "type": "Point", "coordinates": [ -73.810077717664953, 40.70593421780444 ] } },
{ "type": "Feature", "properties": { "BBL": 4097020062.000000, "j_2007uc": "23", "j_2016uc": null, "j_cd": "408", "j_lon": "-73.8097", "j_lat": "40.706", "pluto_addr": "147-01 HILLSIDE AVENUE", "pluto_resu": "24", "_hpdcompla": "3" }, "geometry": { "type": "Point", "coordinates": [ -73.809673220668373, 40.706049457439313 ] } },
{ "type": "Feature", "properties": { "BBL": 4097270041.000000, "j_2007uc": "37", "j_2016uc": "36", "j_cd": "408", "j_lon": "-73.8048", "j_lat": "40.709", "pluto_addr": "150-75 PARSONS BOULEVARD", "pluto_resu": "39", "_hpdcompla": "1" }, "geometry": { "type": "Point", "coordinates": [ -73.804777078691842, 40.709002973707413 ] } },
{ "type": "Feature", "properties": { "BBL": 4097400142.000000, "j_2007uc": "5", "j_2016uc": "3", "j_cd": "408", "j_lon": "-73.8119", "j_lat": "40.7124", "pluto_addr": "147-10 84 DRIVE", "pluto_resu": "78", "_hpdcompla": "1" }, "geometry": { "type": "Point", "coordinates": [ -73.811928089012596, 40.712401046917748 ] } },
{ "type": "Feature", "properties": { "BBL": 4066840002.000000, "j_2007uc": "116", "j_2016uc": "116", "j_cd": "408", "j_lon": "-73.8168", "j_lat": "40.7239", "pluto_addr": "147-09 75 ROAD", "pluto_resu": "116", "_hpdcompla": "6" }, "geometry": { "type": "Point", "coordinates": [ -73.81677748056957, 40.723933924389215 ] } },
{ "type": "Feature", "properties": { "BBL": 4066910011.000000, "j_2007uc": "42", "j_2016uc": "12", "j_cd": "408", "j_lon": "-73.8144", "j_lat": "40.7192", "pluto_addr": "79-04 149 STREET", "pluto_resu": "42", "_hpdcompla": "2" }, "geometry": { "type": "Point", "coordinates": [ -73.814440394611509, 40.719208354914073 ] } },
{ "type": "Feature", "properties": { "BBL": 4068030002.000000, "j_2007uc": "116", "j_2016uc": "96", "j_cd": "408", "j_lon": "-73.8139", "j_lat": "40.7273", "pluto_addr": "72-24 KISSENA BOULEVARD", "pluto_resu": "119", "_hpdcompla": "1" }, "geometry": { "type": "Point", "coordinates": [ -73.813933552986867, 40.72733693802725 ] } },
{ "type": "Feature", "properties": { "BBL": 4066790006.000000, "j_2007uc": "72", "j_2016uc": "72", "j_cd": "408", "j_lon": "-73.8184", "j_lat": "40.7271", "pluto_addr": "147-07 72 ROAD", "pluto_resu": "72", "_hpdcompla": "7" }, "geometry": { "type": "Point", "coordinates": [ -73.8184169119274, 40.727132702185436 ] } },
{ "type": "Feature", "properties": { "BBL": 4067020001.000000, "j_2007uc": "142", "j_2016uc": "140", "j_cd": "408", "j_lon": "-73.8155", "j_lat": "40.7267", "pluto_addr": "150-18 72 DRIVE", "pluto_resu": "144", "_hpdcompla": "1" }, "geometry": { "type": "Point", "coordinates": [ -73.815544488704717, 40.726660307838053 ] } },
{ "type": "Feature", "properties": { "BBL": 4067970054.000000, "j_2007uc": "137", "j_2016uc": "137", "j_cd": "408", "j_lon": "-73.8095", "j_lat": "40.7299", "pluto_addr": "159-10 71 AVENUE", "pluto_resu": "137", "_hpdcompla": "1" }, "geometry": { "type": "Point", "coordinates": [ -73.809544919723265, 40.729912056678245 ] } },
{ "type": "Feature", "properties": { "BBL": 4050400027.000000, "j_2007uc": "126", "j_2016uc": "126", "j_cd": "407", "j_lon": "-73.8315", "j_lat": "40.7557", "pluto_addr": "132-57 SANFORD AVENUE", "pluto_resu": "126", "_hpdcompla": "1" }, "geometry": { "type": "Point", "coordinates": [ -73.831465207009515, 40.75585611203487 ] } },
{ "type": "Feature", "properties": { "BBL": 4051377502.000000, "j_2007uc": "14", "j_2016uc": "1", "j_cd": "407", "j_lon": "-73.8265", "j_lat": "40.7543", "pluto_addr": "137-10 FRANKLIN AVENUE", "pluto_resu": "89", "_hpdcompla": "2" }, "geometry": { "type": "Point", "coordinates": [ -73.826499681975164, 40.754331544316898 ] } },
{ "type": "Feature", "properties": { "BBL": 4051370012.000000, "j_2007uc": "257", "j_2016uc": "284", "j_cd": "407", "j_lon": "-73.8254", "j_lat": "40.7538", "pluto_addr": "42-49 COLDEN STREET", "pluto_resu": "284", "_hpdcompla": "1" }, "geometry": { "type": "Point", "coordinates": [ -73.825382443959853, 40.753789105088629 ] } },
{ "type": "Feature", "properties": { "BBL": 4051820039.000000, "j_2007uc": "47", "j_2016uc": "47", "j_cd": "407", "j_lon": "-73.8221", "j_lat": "40.7564", "pluto_addr": "140-71 ASH AVENUE", "pluto_resu": "48", "_hpdcompla": "1" }, "geometry": { "type": "Point", "coordinates": [ -73.82209802960007, 40.75635615879893 ] } },
{ "type": "Feature", "properties": { "BBL": 4051450049.000000, "j_2007uc": "158", "j_2016uc": "158", "j_cd": "407", "j_lon": "-73.8225", "j_lat": "40.7524", "pluto_addr": "138-52 ELDER AVENUE", "pluto_resu": "159", "_hpdcompla": "1" }, "geometry": { "type": "Point", "coordinates": [ -73.822539457623265, 40.752361443206851 ] } },
{ "type": "Feature", "properties": { "BBL": 4051820015.000000, "j_2007uc": "53", "j_2016uc": "53", "j_cd": "407", "j_lon": "-73.8232", "j_lat": "40.7561", "pluto_addr": "142-02 FRANKLIN AVENUE", "pluto_resu": "55", "_hpdcompla": "1" }, "geometry": { "type": "Point", "coordinates": [ -73.823240721552736, 40.756073089876914 ] } },
{ "type": "Feature", "properties": { "BBL": 4051350057.000000, "j_2007uc": null, "j_2016uc": "2", "j_cd": "407", "j_lon": "-73.827", "j_lat": "40.7549", "pluto_addr": "137-05 FRANKLIN AVENUE", "pluto_resu": "122", "_hpdcompla": "1" }, "geometry": { "type": "Point", "coordinates": [ -73.827006246078369, 40.754946756695531 ] } },
{ "type": "Feature", "properties": { "BBL": 4051860024.000000, "j_2007uc": "31", "j_2016uc": "31", "j_cd": "407", "j_lon": "-73.822", "j_lat": "40.755", "pluto_addr": "140-40 BEECH AVENUE", "pluto_resu": "33", "_hpdcompla": "1" }, "geometry": { "type": "Point", "coordinates": [ -73.822015344311652, 40.755012307998598 ] } },
{ "type": "Feature", "properties": { "BBL": 4051850054.000000, "j_2007uc": "31", "j_2016uc": "18", "j_cd": "407", "j_lon": "-73.8218", "j_lat": "40.7557", "pluto_addr": "140-65 BEECH AVENUE", "pluto_resu": "101", "_hpdcompla": "3" }, "geometry": { "type": "Point", "coordinates": [ -73.821792935291342, 40.755686452185394 ] } },
{ "type": "Feature", "properties": { "BBL": 4098370044.000000, "j_2007uc": "2", "j_2016uc": "1", "j_cd": "408", "j_lon": "-73.7981", "j_lat": "40.7103", "pluto_addr": "87-15 165 STREET", "pluto_resu": "86", "_hpdcompla": "1" }, "geometry": { "type": "Point", "coordinates": [ -73.798120246694197, 40.71032312505492 ] } },
{ "type": "Feature", "properties": { "BBL": 4098360001.000000, "j_2007uc": null, "j_2016uc": null, "j_cd": "408", "j_lon": "-73.7984", "j_lat": "40.7093", "pluto_addr": "87-40 165 STREET", "pluto_resu": "118", "_hpdcompla": "3" }, "geometry": { "type": "Point", "coordinates": [ -73.798434393722914, 40.709372817444972 ] } },
{ "type": "Feature", "properties": { "BBL": 4098490130.000000, "j_2007uc": "149", "j_2016uc": "151", "j_cd": "408", "j_lon": "-73.7973", "j_lat": "40.7116", "pluto_addr": "166-05 HIGHLAND AVENUE", "pluto_resu": "189", "_hpdcompla": "2" }, "geometry": { "type": "Point", "coordinates": [ -73.797418233149813, 40.711656503322423 ] } },
{ "type": "Feature", "properties": { "BBL": 4098190003.000000, "j_2007uc": "190", "j_2016uc": "188", "j_cd": "412", "j_lon": "-73.7939", "j_lat": "40.7091", "pluto_addr": "88-15 168 STREET", "pluto_resu": "190", "_hpdcompla": "11" }, "geometry": { "type": "Point", "coordinates": [ -73.793879906670838, 40.709142750595113 ] } },
{ "type": "Feature", "properties": { "BBL": 4098440005.000000, "j_2007uc": "62", "j_2016uc": "19", "j_cd": "408", "j_lon": "-73.7925", "j_lat": "40.7115", "pluto_addr": "170-10 CEDARCROFT ROAD", "pluto_resu": "71", "_hpdcompla": "1" }, "geometry": { "type": "Point", "coordinates": [ -73.792510785408652, 40.711498382183848 ] } },
{ "type": "Feature", "properties": { "BBL": 4098270008.000000, "j_2007uc": "80", "j_2016uc": "79", "j_cd": "412", "j_lon": "-73.7901", "j_lat": "40.7107", "pluto_addr": "88-05 171 STREET", "pluto_resu": "81", "_hpdcompla": "1" }, "geometry": { "type": "Point", "coordinates": [ -73.790139209258655, 40.710651259124042 ] } },
{ "type": "Feature", "properties": { "BBL": 4098040048.000000, "j_2007uc": "23", "j_2016uc": "23", "j_cd": "412", "j_lon": "-73.7896", "j_lat": "40.7085", "pluto_addr": "90-16 171 STREET", "pluto_resu": "23", "_hpdcompla": "2" }, "geometry": { "type": "Point", "coordinates": [ -73.78964361505102, 40.708478626206791 ] } },
{ "type": "Feature", "properties": { "BBL": 4098230009.000000, "j_2007uc": "64", "j_2016uc": "65", "j_cd": "412", "j_lon": "-73.7922", "j_lat": "40.7099", "pluto_addr": "169-04 88 AVENUE", "pluto_resu": "65", "_hpdcompla": "1" }, "geometry": { "type": "Point", "coordinates": [ -73.79224112552339, 40.709886965355999 ] } },
{ "type": "Feature", "properties": { "BBL": 4098040025.000000, "j_2007uc": null, "j_2016uc": "8", "j_cd": "412", "j_lon": "-73.79", "j_lat": "40.7082", "pluto_addr": "90-23 170 STREET", "pluto_resu": "8", "_hpdcompla": "1" }, "geometry": { "type": "Point", "coordinates": [ -73.789967487065312, 40.708179853028675 ] } },
{ "type": "Feature", "properties": { "BBL": 4098180049.000000, "j_2007uc": "44", "j_2016uc": "52", "j_cd": "412", "j_lon": "-73.7957", "j_lat": "40.709", "pluto_addr": "166-05 88 AVENUE", "pluto_resu": "53", "_hpdcompla": "1" }, "geometry": { "type": "Point", "coordinates": [ -73.795695912702001, 40.709015569886802 ] } },
{ "type": "Feature", "properties": { "BBL": 4098960026.000000, "j_2007uc": "10", "j_2016uc": "10", "j_cd": "412", "j_lon": "-73.7818", "j_lat": "40.7097", "pluto_addr": "90-39 179 PLACE", "pluto_resu": "10", "_hpdcompla": "1" }, "geometry": { "type": "Point", "coordinates": [ -73.781831789657147, 40.709738037535615 ] } },
{ "type": "Feature", "properties": { "BBL": 4099370001.000000, "j_2007uc": "134", "j_2016uc": "135", "j_cd": "408", "j_lon": "-73.7851", "j_lat": "40.7129", "pluto_addr": "178-10 WEXFORD TERRACE", "pluto_resu": "152", "_hpdcompla": "2" }, "geometry": { "type": "Point", "coordinates": [ -73.785070424788216, 40.712884323209302 ] } },
{ "type": "Feature", "properties": { "BBL": 4103610050.000000, "j_2007uc": "24", "j_2016uc": "24", "j_cd": "412", "j_lon": "-73.7736", "j_lat": "40.7067", "pluto_addr": "102-04 184 STREET", "pluto_resu": "24", "_hpdcompla": "2" }, "geometry": { "type": "Point", "coordinates": [ -73.773562405499959, 40.706655142814391 ] } },
{ "type": "Feature", "properties": { "BBL": 4103620001.000000, "j_2007uc": "72", "j_2016uc": "26", "j_cd": "412", "j_lon": "-73.7728", "j_lat": "40.706", "pluto_addr": "102-31 184 STREET", "pluto_resu": "26", "_hpdcompla": "1" }, "geometry": { "type": "Point", "coordinates": [ -73.772821626583905, 40.705969477694836 ] } },